$GPGGA,093448.000,4511.7786,N,00542.6107,E,2,8,1.11,223.0,M,48.5,M,0000,0000*52
$GPGGA,093449.000,4511.7786,N,00542.6107,E,2,8,1.17,223.0,M,48.5,M,0000,0000*55
$GPGGA,093450.000,4511.7786,N,00542.6107,E,2,8,1.11,223.0,M,48.5,M,0000,0000*5B
$GPGGA,093451.000,4511.7786,N,00542.6107,E,2,8,1.11,223.0,M,48.5,M,0000,0000*5A
$GPGGA,093452.000,4511.7786,N,00542.6107,E,2,8,1.11,223.0,M,48.5,M,0000,0000*59
$GPGGA,093453.000,4511.7786,N,00542.6107,E,2,8,1.11,223.0,M,48.5,M,0000,0000*58
$GPGGA,093454.000,4511.7786,N,00542.6107,E,2,8,1.11,223.0,M,48.5,M,0000,0000*5F
$GPGGA,093455.000,4511.7786,N,00542.6107,E,2,8,1.17,223.0,M,48.5,M,0000,0000*58
$GPGGA,093456.000,4511.7786,N,00542.6107,E,2,8,1.11,223.0,M,48.5,M,0000,0000*5D
$GPGGA,093457.000,4511.7786,N,00542.6107,E,2,8,1.11,223.0,M,48.5,M,0000,0000*5C
$GPGGA,093458.000,4511.7786,N,00542.6107,E,2,8,1.11,223.0,M,48.5,M,0000,0000*53
$GPGGA,093459.000,4511.7786,N,00542.6107,E,2,8,1.11,223.0,M,48.5,M,0000,0000*52
$GPGGA,093500.000,4511.7786,N,00542.6107,E,2,8,1.11,223.0,M,48.5,M,0000,0000*5F
$GPGGA,093501.000,4511.7786,N,00542.6107,E,2,8,1.11,223.0,M,48.5,M,0000,0000*5E
$GPGGA,093502.000,4511.7786,N,00542.6107,E,2,8,1.11,223.0,M,48.5,M,0000,0000*5D
$GPGGA,093503.000,4511.7786,N,00542.6107,E,2,8,1.11,223.0,M,48.5,M,0000,0000*5C
$GPGGA,093504.000,4511.7786,N,00542.6107,E,2,8,1.11,223.0,M,48.5,M,0000,0000*5B
$GPGGA,093505.000,4511.7786,N,00542.6107,E,2,8,1.11,223.0,M,48.5,M,0000,0000*5A
$GPGGA,093506.000,4511.7786,N,00542.6107,E,2,8,1.11,223.0,M,48.5,M,0000,0000*59
$GPGGA,093507.000,4511.7786,N,00542.6107,E,2,8,1.11,223.0,M,48.5,M,0000,0000*58
$GPGGA,093508.000,4511.7786,N,00542.6107,E,2,8,1.12,223.0,M,48.5,M,0000,0000*54
$GPGGA,093509.000,4511.7786,N,00542.6107,E,2,8,1.17,223.0,M,48.5,M,0000,0000*50
$GPGGA,093510.000,4511.7786,N,00542.6107,E,2,8,1.11,223.0,M,48.5,M,0000,0000*5E
$GPGGA,093511.000,4511.7786,N,00542.6107,E,2,8,1.11,223.0,M,48.5,M,0000,0000*5F
$GPGGA,093512.000,4511.7786,N,00542.6107,E,2,8,1.11,223.0,M,48.5,M,0000,0000*5C
$GPGGA,093513.000,4511.7786,N,00542.6107,E,2,8,1.11,223.0,M,48.5,M,0000,0000*5D
$GPGGA,093514.000,4511.7786,N,00542.6107,E,2,8,1.11,223.0,M,48.5,M,0000,0000*5A
$GPGGA,093515.000,4511.7786,N,00542.6107,E,2,8,1.11,223.0,M,48.5,M,0000,0000*5B
$GPGGA,093516.000,4511.7786,N,00542.6107,E,2,8,1.11,223.0,M,48.5,M,0000,0000*58
$GPGGA,093517.000,4511.7786,N,00542.6107,E,2,8,1.11,223.0,M,48.5,M,0000,0000*59
$GPGGA,093518.000,4511.7786,N,00542.6107,E,2,8,1.11,223.0,M,48.5,M,0000,0000*56
$GPGGA,093519.000,4511.7786,N,00542.6107,E,2,8,1.11,223.0,M,48.5,M,0000,0000*57
$GPGGA,093520.000,4511.7786,N,00542.6107,E,2,8,1.11,223.0,M,48.5,M,0000,0000*5D
$GPGGA,093521.000,4511.7786,N,00542.6107,E,2,8,1.11,223.0,M,48.5,M,0000,0000*5C
$GPGGA,093522.000,4511.7786,N,00542.6107,E,2,8,1.17,223.0,M,48.5,M,0000,0000*59
$GPGGA,093523.000,4511.7786,N,00542.6107,E,2,8,1.11,223.0,M,48.5,M,0000,0000*5E
$GPGGA,093524.000,4511.7786,N,00542.6107,E,2,8,1.17,223.0,M,48.5,M,0000,0000*5F
$GPGGA,093525.000,4511.7786,N,00542.6107,E,2,9,0.98,223.0,M,48.5,M,0000,0000*59
$GPGGA,093526.000,4511.7786,N,00542.6107,E,2,9,0.98,223.0,M,48.5,M,0000,0000*5A
$GPGGA,093527.000,4511.7786,N,00542.6107,E,2,9,0.98,223.0,M,48.5,M,0000,0000*5B
$GPGGA,093528.000,4511.7786,N,00542.6107,E,2,8,1.12,223.0,M,48.5,M,0000,0000*56
$GPGGA,093529.000,4511.7786,N,00542.6107,E,2,8,1.11,223.0,M,48.5,M,0000,0000*54
$GPGGA,093530.000,4511.7786,N,00542.6107,E,2,8,1.12,223.0,M,48.5,M,0000,0000*5F
$GPGGA,093531.000,4511.7786,N,00542.6107,E,2,8,1.12,223.0,M,48.5,M,0000,0000*5E
$GPGGA,093532.000,4511.7786,N,00542.6107,E,2,8,1.12,223.0,M,48.5,M,0000,0000*5D
$GPGGA,093533.000,4511.7786,N,00542.6107,E,2,8,1.12,223.0,M,48.5,M,0000,0000*5C
$GPGGA,093534.000,4511.7786,N,00542.6107,E,2,8,1.12,223.0,M,48.5,M,0000,0000*5B
$GPGGA,093535.000,4511.7786,N,00542.6107,E,2,8,1.12,223.0,M,48.5,M,0000,0000*5A
$GPGGA,093536.000,4511.7786,N,00542.6107,E,2,8,1.12,223.0,M,48.5,M,0000,0000*59
$GPGGA,093537.000,4511.7786,N,00542.6107,E,2,8,1.11,223.0,M,48.5,M,0000,0000*5B
$GPGGA,093538.000,4511.7786,N,00542.6107,E,2,8,1.12,223.0,M,48.5,M,0000,0000*57
$GPGGA,093539.000,4511.7786,N,00542.6107,E,2,9,0.98,223.0,M,48.5,M,0000,0000*54
$GPGGA,093540.000,4511.7786,N,00542.6107,E,2,9,0.98,223.0,M,48.5,M,0000,0000*5A
$GPGGA,093541.000,4511.7786,N,00542.6107,E,2,9,0.98,223.0,M,48.5,M,0000,0000*5B
$GPGGA,093542.000,4511.7786,N,00542.6107,E,2,9,1.05,223.0,M,48.5,M,0000,0000*5D
$GPGGA,093543.000,4511.7786,N,00542.6107,E,2,9,0.98,223.0,M,48.5,M,0000,0000*59
$GPGGA,093544.000,4511.7786,N,00542.6107,E,2,9,0.98,223.0,M,48.5,M,0000,0000*5E
$GPGGA,093545.000,4511.7786,N,00542.6107,E,2,9,0.98,223.0,M,48.5,M,0000,0000*5F
$GPGGA,093546.000,4511.7786,N,00542.6107,E,2,9,0.98,223.0,M,48.5,M,0000,0000*5C
$GPGGA,093547.000,4511.7786,N,00542.6107,E,2,9,0.98,223.0,M,48.5,M,0000,0000*5D
$GPGGA,093548.000,4511.7786,N,00542.6107,E,2,9,1.05,223.0,M,48.5,M,0000,0000*57
$GPGGA,093549.000,4511.7786,N,00542.6107,E,2,9,0.98,223.0,M,48.5,M,0000,0000*53
$GPGGA,093550.000,4511.7786,N,00542.6107,E,2,8,1.06,223.0,M,48.5,M,0000,0000*5C
$GPGGA,093551.000,4511.7786,N,00542.6107,E,2,8,1.06,223.0,M,48.5,M,0000,0000*5D
$GPGGA,093552.000,4511.7786,N,00542.6107,E,2,8,1.06,223.0,M,48.5,M,0000,0000*5E
$GPGGA,093553.000,4511.7786,N,00542.6107,E,2,8,1.06,223.0,M,48.5,M,0000,0000*5F
$GPGGA,093554.000,4511.7786,N,00542.6107,E,2,8,1.06,223.0,M,48.5,M,0000,0000*58
$GPGGA,093555.000,4511.7786,N,00542.6107,E,2,8,1.06,223.0,M,48.5,M,0000,0000*59
$GPGGA,093556.000,4511.7786,N,00542.6107,E,2,8,1.06,223.0,M,48.5,M,0000,0000*5A
$GPGGA,093557.000,4511.7786,N,00542.6107,E,2,8,1.24,223.0,M,48.5,M,0000,0000*5B
$GPGGA,093558.000,4511.7786,N,00542.6107,E,2,8,1.06,223.0,M,48.5,M,0000,0000*54
$GPGGA,093559.000,4511.7786,N,00542.6107,E,2,8,1.06,223.0,M,48.5,M,0000,0000*55
$GPGGA,093600.000,4511.7786,N,00542.6107,E,2,8,1.06,223.0,M,48.5,M,0000,0000*5A
$GPGGA,093601.000,4511.7786,N,00542.6107,E,2,8,1.06,223.0,M,48.5,M,0000,0000*5B
$GPGGA,093602.000,4511.7786,N,00542.6107,E,2,8,1.06,223.0,M,48.5,M,0000,0000*58
$GPGGA,093603.000,4511.7786,N,00542.6107,E,2,8,1.06,223.0,M,48.5,M,0000,0000*59
$GPGGA,093604.000,4511.7786,N,00542.6107,E,2,8,1.06,223.0,M,48.5,M,0000,0000*5E
$GPGGA,093605.000,4511.7786,N,00542.6107,E,2,8,1.06,223.0,M,48.5,M,0000,0000*5F
$GPGGA,093606.000,4511.7786,N,00542.6107,E,2,8,1.06,223.0,M,48.5,M,0000,0000*5C
$GPGGA,093607.000,4511.7786,N,00542.6107,E,2,8,1.06,223.0,M,48.5,M,0000,0000*5D
$GPGGA,093608.000,4511.7786,N,00542.6107,E,2,8,1.06,223.0,M,48.5,M,0000,0000*52
$GPGGA,093609.000,4511.7786,N,00542.6107,E,2,7,1.16,223.0,M,48.5,M,0000,0000*5D
$GPGGA,093610.000,4511.7786,N,00542.6107,E,2,6,1.30,223.0,M,48.5,M,0000,0000*50
$GPGGA,093611.000,4511.7786,N,00542.6107,E,2,8,1.06,223.0,M,48.5,M,0000,0000*5A
$GPGGA,093612.000,4511.7786,N,00542.6107,E,2,8,1.06,223.0,M,48.5,M,0000,0000*59
$GPGGA,093613.000,4511.7786,N,00542.6107,E,2,8,1.06,223.0,M,48.5,M,0000,0000*58
$GPGGA,093614.000,4511.7786,N,00542.6107,E,2,8,1.06,223.0,M,48.5,M,0000,0000*5F
$GPGGA,093615.000,4511.7786,N,00542.6107,E,2,8,1.06,223.0,M,48.5,M,0000,0000*5E
$GPGGA,093616.000,4511.7786,N,00542.6107,E,2,8,1.06,223.0,M,48.5,M,0000,0000*5D
$GPGGA,093617.000,4511.7786,N,00542.6107,E,2,8,1.06,223.0,M,48.5,M,0000,0000*5C
$GPGGA,093618.000,4511.7786,N,00542.6107,E,2,8,1.06,223.0,M,48.5,M,0000,0000*53
$GPGGA,093619.000,4511.7786,N,00542.6107,E,2,8,1.06,223.0,M,48.5,M,0000,0000*52
$GPGGA,093620.000,4511.7786,N,00542.6107,E,2,8,1.24,223.0,M,48.5,M,0000,0000*58
$GPGGA,093621.000,4511.7786,N,00542.6107,E,2,8,1.06,223.0,M,48.5,M,0000,0000*59
$GPGGA,093622.000,4511.7786,N,00542.6107,E,2,8,1.24,223.0,M,48.5,M,0000,0000*5A
$GPGGA,093623.000,4511.7786,N,00542.6107,E,2,8,1.06,223.0,M,48.5,M,0000,0000*5B
$GPGGA,093624.000,4511.7786,N,00542.6107,E,2,8,1.06,223.0,M,48.5,M,0000,0000*5C
$GPGGA,093625.000,4511.7786,N,00542.6107,E,2,8,1.06,223.0,M,48.5,M,0000,0000*5D
$GPGGA,093626.000,4511.7786,N,00542.6107,E,2,8,1.24,223.0,M,48.5,M,0000,0000*5E
$GPGGA,093627.000,4511.7786,N,00542.6107,E,2,8,1.24,223.0,M,48.5,M,0000,0000*5F
$GPGGA,093628.000,4511.7786,N,00542.6107,E,2,8,1.24,223.0,M,48.5,M,0000,0000*50
$GPGGA,093629.000,4511.7786,N,00542.6107,E,2,8,1.24,223.0,M,48.5,M,0000,0000*51
$GPGGA,093630.000,4511.7786,N,00542.6107,E,2,8,1.24,223.0,M,48.5,M,0000,0000*59
$GPGGA,093631.000,4511.7786,N,00542.6107,E,2,8,1.24,223.0,M,48.5,M,0000,0000*58
$GPGGA,093632.000,4511.7786,N,00542.6107,E,2,8,1.24,223.0,M,48.5,M,0000,0000*5B
$GPGGA,093633.000,4511.7786,N,00542.6107,E,2,7,1.19,223.0,M,48.5,M,0000,0000*5B
$GPGGA,093634.000,4511.7786,N,00542.6107,E,2,7,1.19,223.0,M,48.5,M,0000,0000*5C
$GPGGA,093635.000,4511.7786,N,00542.6107,E,2,8,1.06,223.0,M,48.5,M,0000,0000*5C
$GPGGA,093636.000,4511.7786,N,00542.6107,E,2,8,1.06,223.0,M,48.5,M,0000,0000*5F
$GPGGA,093637.000,4511.7786,N,00542.6107,E,2,8,1.06,223.0,M,48.5,M,0000,0000*5E
$GPGGA,093638.000,4511.7786,N,00542.6107,E,2,8,1.06,223.0,M,48.5,M,0000,0000*51
$GPGGA,093639.000,4511.7786,N,00542.6107,E,2,8,1.06,223.0,M,48.5,M,0000,0000*50
$GPGGA,093640.000,4511.7786,N,00542.6107,E,2,8,1.06,223.0,M,48.5,M,0000,0000*5E
$GPGGA,093641.000,4511.7786,N,00542.6107,E,2,8,1.06,223.0,M,48.5,M,0000,0000*5F
$GPGGA,093642.000,4511.7786,N,00542.6107,E,2,8,1.06,223.0,M,48.5,M,0000,0000*5C
$GPGGA,093643.000,4511.7786,N,00542.6107,E,2,8,1.24,223.0,M,48.5,M,0000,0000*5D
$GPGGA,093644.000,4511.7786,N,00542.6107,E,2,8,1.06,223.0,M,48.5,M,0000,0000*5A
$GPGGA,093645.000,4511.7786,N,00542.6107,E,2,8,1.24,223.0,M,48.5,M,0000,0000*5B
$GPGGA,093646.000,4511.7786,N,00542.6107,E,2,8,1.24,223.0,M,48.5,M,0000,0000*58
$GPGGA,093647.000,4511.7786,N,00542.6107,E,2,8,1.06,223.0,M,48.5,M,0000,0000*59
$GPGGA,093648.000,4511.7786,N,00542.6107,E,2,8,1.06,223.0,M,48.5,M,0000,0000*56
$GPGGA,093649.000,4511.7786,N,00542.6107,E,2,8,1.06,223.0,M,48.5,M,0000,0000*57
$GPGGA,093650.000,4511.7786,N,00542.6107,E,2,8,1.24,223.0,M,48.5,M,0000,0000*5F
$GPGGA,093651.000,4511.7776,N,00542.6161,E,2,8,1.06,226.6,M,48.5,M,0000,0000*52
$GPGGA,093652.000,4511.7774,N,00542.6161,E,2,8,1.06,226.8,M,48.5,M,0000,0000*5D
$GPGGA,093653.000,4511.7770,N,00542.6160,E,2,8,1.06,226.9,M,48.5,M,0000,0000*58
$GPGGA,093654.000,4511.7764,N,00542.6161,E,2,8,1.06,226.9,M,48.5,M,0000,0000*5B
$GPGGA,093655.000,4511.7755,N,00542.6160,E,2,8,1.06,227.0,M,48.5,M,0000,0000*51
$GPGGA,093656.000,4511.7755,N,00542.6160,E,2,8,1.06,227.0,M,48.5,M,0000,0000*52
$GPGGA,093657.000,4511.7755,N,00542.6160,E,2,8,1.06,227.0,M,48.5,M,0000,0000*53
$GPGGA,093658.000,4511.7755,N,00542.6160,E,2,8,1.06,227.0,M,48.5,M,0000,0000*5C
$GPGGA,093659.000,4511.7755,N,00542.6160,E,2,7,1.19,227.0,M,48.5,M,0000,0000*5C
$GPGGA,093700.000,4511.7755,N,00542.6160,E,2,7,1.19,227.0,M,48.5,M,0000,0000*51
$GPGGA,093701.000,4511.7755,N,00542.6160,E,2,7,1.19,227.0,M,48.5,M,0000,0000*50
$GPGGA,093702.000,4511.7755,N,00542.6160,E,2,8,1.06,227.0,M,48.5,M,0000,0000*52
$GPGGA,093703.000,4511.7755,N,00542.6160,E,2,8,1.06,227.0,M,48.5,M,0000,0000*53
$GPGGA,093704.000,4511.7755,N,00542.6160,E,2,8,1.06,227.0,M,48.5,M,0000,0000*54
$GPGGA,093705.000,4511.7755,N,00542.6160,E,2,8,1.06,227.0,M,48.5,M,0000,0000*55
$GPGGA,093706.000,4511.7755,N,00542.6160,E,2,8,1.06,227.0,M,48.5,M,0000,0000*56
$GPGGA,093707.000,4511.7755,N,00542.6160,E,2,8,1.06,227.0,M,48.5,M,0000,0000*57
$GPGGA,093708.000,4511.7755,N,00542.6160,E,2,8,1.06,227.0,M,48.5,M,0000,0000*58
$GPGGA,093709.000,4511.7755,N,00542.6160,E,2,8,1.06,227.0,M,48.5,M,0000,0000*59
$GPGGA,093710.000,4511.7743,N,00542.6143,E,2,7,1.17,227.3,M,48.5,M,0000,0000*5B
$GPGGA,093711.000,4511.7749,N,00542.6145,E,2,8,1.06,227.1,M,48.5,M,0000,0000*5B
$GPGGA,093712.000,4511.7753,N,00542.6146,E,2,8,1.06,226.9,M,48.5,M,0000,0000*59
$GPGGA,093713.000,4511.7758,N,00542.6147,E,2,8,1.24,226.8,M,48.5,M,0000,0000*53
$GPGGA,093714.000,4511.7762,N,00542.6149,E,2,8,1.06,226.7,M,48.5,M,0000,0000*5C
$GPGGA,093715.000,4511.7769,N,00542.6153,E,2,8,1.24,226.7,M,48.5,M,0000,0000*5D
$GPGGA,093716.000,4511.7778,N,00542.6157,E,2,8,1.06,226.6,M,48.5,M,0000,0000*5B
$GPGGA,093717.000,4511.7785,N,00542.6160,E,2,8,1.06,226.3,M,48.5,M,0000,0000*59
$GPGGA,093718.000,4511.7794,N,00542.6163,E,2,8,1.06,226.2,M,48.5,M,0000,0000*54
$GPGGA,093719.000,4511.7798,N,00542.6164,E,2,8,1.06,226.1,M,48.5,M,0000,0000*5D
$GPGGA,093720.000,4511.7799,N,00542.6163,E,2,8,1.06,226.1,M,48.5,M,0000,0000*51
$GPGGA,093721.000,4511.7802,N,00542.6163,E,2,8,1.24,225.9,M,48.5,M,0000,0000*56
$GPGGA,093722.000,4511.7808,N,00542.6163,E,2,8,1.06,225.8,M,48.5,M,0000,0000*5E
$GPGGA,093723.000,4511.7812,N,00542.6168,E,2,8,1.06,226.0,M,48.5,M,0000,0000*54
$GPGGA,093724.000,4511.7817,N,00542.6181,E,2,8,1.06,226.5,M,48.5,M,0000,0000*54
$GPGGA,093725.000,4511.7839,N,00542.6177,E,2,8,1.16,226.2,M,48.5,M,0000,0000*56
$GPGGA,093726.000,4511.7865,N,00542.6198,E,2,8,1.24,226.5,M,48.5,M,0000,0000*5B
$GPGGA,093727.000,4511.7876,N,00542.6217,E,2,8,1.06,226.9,M,48.5,M,0000,0000*50
