786,N,00542.6107,E,0.00,331.19,060219,,,D*6F

$GPGGA,093448.000,4511.7786,N,00542.6107,E,2,8,1.11,223.0,M,48.5,M,0000,0000*52

$GPGSA,A,3,09,23,02,05,07,13,30,28,,,,,1.37,1.11,0.80*0D

$GPGSV,3,1,11,30,73,176,22,07,62,064,41,05,52,302,30,09,33,080,49*74

$GPGSV,3,2,11,02,30,242,19,13,22,270,24,40,19,121,39,06,16,203,*70

$GPGSV,3,3,11,28,11,153,28,23,05,087,13,16,03,023,*42

$GPRMC,093448.000,A,4511.7786,N,00542.6107,E,0.00,331.19,060219,,,D*60

$GPGGA,093449.000,4511.7786,N,00542.6107,E,2,8,1.17,223.0,M,48.5,M,0000,0000*55

$GPGSA,A,3,09,23,02,05,07,13,30,28,,,,,1.77,1.17,1.33*06

$GPGSV,3,1,11,30,73,175,19,07,62,064,41,05,52,302,29,09,33,080,49*77

$GPGSV,3,2,11,02,30,242,17,13,22,270,20,40,19,121,39,06,16,203,*7A

$GPGSV,3,3,11,28,11,153,28,23,05,087,15,16,03,023,*44

$GPRMC,093449.000,A,4511.7786,N,00542.6107,E,0.00,331.19,060219,,,D*61

$GPGGA,093450.000,4511.7786,N,00542.6107,E,2,8,1.11,223.0,M,48.5,M,0000,0000*5B

$GPGSA,A,3,09,23,02,05,07,13,30,28,,,,,1.37,1.11,0.80*0D

$GPGSV,3,1,11,30,73,175,24,07,62,064,41,05,52,302,29,09,33,080,49*79

$GPGSV,3,2,11,02,30,242,16,13,22,270,21,40,19,121,39,06,16,203,*7A

$GPGSV,3,3,11,28,11,153,28,23,05,087,15,16,03,023,*44

$GPRMC,093450.000,A,4511.7786,N,00542.6107,E,0.00,331.19,060219,,,D*69

$GPGGA,093451.000,4511.7786,N,00542.6107,E,2,8,1.11,223.0,M,48.5,M,0000,0000*5A

$GPGSA,A,3,09,23,02,05,07,13,30,28,,,,,1.37,1.11,0.80*0D

$GPGSV,3,1,11,30,73,175,25,07,62,064,42,05,52,302,28,09,33,080,49*7A

$GPGSV,3,2,11,02,30,242,16,13,22,270,20,40,19,121,39,06,16,203,27*7E

$GPGSV,3,3,11,28,11,153,27,23,05,087,17,16,03,023,*49

$GPRMC,093451.000,A,4511.7786,N,00542.6107,E,0.00,331.19,060219,,,D*68

$GPGGA,093452.000,4511.7786,N,00542.6107,E,2,8,1.11,223.0,M,48.5,M,0000,0000*59

$GPGSA,A,3,09,23,02,05,07,13,30,28,,,,,1.37,1.11,0.80*0D

$GPGSV,3,1,11,30,73,175,27,07,62,064,42,05,52,302,20,09,33,080,49*70

$GPGSV,3,2,11,02,30,242,18,13,22,270,19,40,19,121,39,06,16,203,28*75

$GPGSV,3,3,11,28,11,153,28,23,05,087,17,16,03,023,*46

$GPRMC,093452.000,A,4511.7786,N,00542.6107,E,0.00,331.19,060219,,,D*6B

$GPGGA,093453.000,4511.7786,N,00542.6107,E,2,8,1.11,223.0,M,48.5,M,0000,0000*58

$GPGSA,A,3,09,23,02,05,07,13,30,28,,,,,1.37,1.11,0.80*0D

$GPGSV,3,1,11,30,73,175,27,07,62,064,42,05,52,302,16,09,33,080,49*75

$GPGSV,3,2,11,02,30,242,18,13,22,270,19,40,19,121,39,06,16,203,29*74

$GPGSV,3,3,11,28,11,153,28,23,05,087,16,16,03,023,*47

$GPRMC,093453.000,A,4511.7786,N,00542.6107,E,0.00,331.19,060219,,,D*6A

$GPGGA,093454.000,4511.7786,N,00542.6107,E,2,8,1.11,223.0,M,48.5,M,0000,0000*5F

$GPGSA,A,3,09,23,02,05,07,13,30,28,,,,,1.37,1.11,0.80*0D

$GPGSV,3,1,11,30,73,175,27,07,62,064,42,05,52,302,17,09,33,080,48*75

$GPGSV,3,2,11,02,30,242,19,13,22,270,20,40,19,121,39,06,16,203,29*7F

$GPGSV,3,3,11,28,11,153,28,23,05,087,15,16,03,023,*44

$GPRMC,093454.000,A,4511.7786,N,00542.6107,E,0.00,331.19,060219,,,D*6D

$GPGGA,093455.000,4511.7786,N,00542.6107,E,2,8,1.17,223.0,M,48.5,M,0000,0000*58

$GPGSA,A,3,09,23,02,05,07,13,30,28,,,,,1.77,1.17,1.33*06

$GPGSV,3,1,11,30,73,175,27,07,62,064,42,05,52,302,24,09,33,080,48*75

$GPGSV,3,2,11,02,30,242,23,13,22,270,20,40,19,121,39,06,16,203,28*77

$GPGSV,3,3,11,28,11,153,28,23,05,087,15,16,03,023,*44

$GPRMC,093455.000,A,4511.7786,N,00542.6107,E,0.00,331.19,060219,,,D*6C

$GPGGA,093456.000,4511.7786,N,00542.6107,E,2,8,1.11,223.0,M,48.5,M,0000,0000*5D

$GPGSA,A,3,09,23,02,05,07,13,30,28,,,,,1.37,1.11,0.80*0D

$GPGSV,3,1,11,30,73,175,27,07,62,064,42,05,52,302,29,09,33,080,48*78

$GPGSV,3,2,11,02,30,241,24,13,22,270,22,40,19,121,39,06,16,203,29*70

$GPGSV,3,3,11,28,11,153,28,23,05,087,14,16,03,023,*45

$GPRMC,093456.000,A,4511.7786,N,00542.6107,E,0.00,331.19,060219,,,D*6F

$GPGGA,093457.000,4511.7786,N,00542.6107,E,2,8,1.11,223.0,M,48.5,M,0000,0000*5C

$GPGSA,A,3,09,23,02,05,07,13,30,28,,,,,1.37,1.11,0.80*0D

$GPGSV,3,1,11,30,73,175,22,07,62,064,42,05,52,302,28,09,33,080,48*7C

$GPGSV,3,2,11,02,30,241,24,13,22,270,26,40,19,121,39,06,16,203,29*74

$GPGSV,3,3,11,28,11,153,28,23,05,087,13,16,03,023,*42

$GPRMC,093457.000,A,4511.7786,N,00542.6107,E,0.00,331.19,060219,,,D*6E

$GPGGA,093458.000,4511.7786,N,00542.6107,E,2,8,1.11,223.0,M,48.5,M,0000,0000*53

$GPGSA,A,3,09,23,02,05,07,13,30,28,,,,,1.37,1.11,0.80*0D

$GPGSV,3,1,11,30,73,175,20,07,62,064,42,05,52,302,27,09,33,080,48*71

$GPGSV,3,2,11,02,30,241,25,13,22,270,26,40,19,121,39,06,16,203,29*75

$GPGSV,3,3,11,28,11,153,28,23,05,087,14,16,03,023,*45

$GPRMC,093458.000,A,4511.7786,N,00542.6107,E,0.00,331.19,060219,,,D*61

$GPGGA,093459.000,4511.7786,N,00542.6107,E,2,8,1.11,223.0,M,48.5,M,0000,0000*52

$GPGSA,A,3,09,23,02,05,07,13,30,28,,,,,1.37,1.11,0.80*0D

$GPGSV,3,1,11,30,73,175,22,07,62,064,42,05,52,302,27,09,33,080,48*73

$GPGSV,3,2,11,02,30,241,24,13,22,270,27,40,19,121,39,06,16,203,29*75

$GPGSV,3,3,11,28,11,153,28,23,05,087,13,16,03,023,*42

$GPRMC,093459.000,A,4511.7786,N,00542.6107,E,0.00,331.19,060219,,,D*60

$GPGGA,093500.000,4511.7786,N,00542.6107,E,2,8,1.11,223.0,M,48.5,M,0000,0000*5F

$GPGSA,A,3,09,23,02,05,07,13,30,28,,,,,1.37,1.11,0.80*0D

$GPGSV,3,1,11,30,73,175,18,07,62,064,42,05,52,302,28,09,33,080,48*75

$GPGSV,3,2,11,02,30,241,25,13,22,270,26,40,19,121,39,06,16,203,29*75

$GPGSV,3,3,11,28,11,153,28,23,05,087,15,16,03,023,*44

$GPRMC,093500.000,A,4511.7786,N,00542.6107,E,0.00,331.19,060219,,,D*6D

$GPGGA,093501.000,4511.7786,N,00542.6107,E,2,8,1.11,223.0,M,48.5,M,0000,0000*5E

$GPGSA,A,3,09,23,02,05,07,13,30,28,,,,,1.37,1.11,0.80*0D

$GPGSV,3,1,11,30,73,175,16,07,62,063,42,05,52,302,27,09,33,080,48*73

$GPGSV,3,2,11,02,30,241,27,13,22,270,28,40,19,121,39,06,16,203,29*79

$GPGSV,3,3,11,28,11,153,28,23,05,087,15,16,03,023,*44

$GPRMC,093501.000,A,4511.7786,N,00542.6107,E,0.00,331.19,060219,,,D*6C

$GPGGA,093502.000,4511.7786,N,00542.6107,E,2,8,1.11,223.0,M,48.5,M,0000,0000*5D

$GPGSA,A,3,09,23,02,05,07,13,30,28,,,,,1.37,1.11,0.80*0D

$GPGSV,3,1,11,30,73,175,14,07,62,063,42,05,52,302,26,09,33,080,48*70

$GPGSV,3,2,11,02,30,241,27,13,22,270,26,40,19,121,39,06,16,203,28*76

$GPGSV,3,3,11,28,11,153,28,23,05,087,17,16,03,023,*46

$GPRMC,093502.000,A,4511.7786,N,00542.6107,E,0.00,331.19,060219,,,D*6F

$GPGGA,093503.000,4511.7786,N,00542.6107,E,2,8,1.11,223.0,M,48.5,M,0000,0000*5C

$GPGSA,A,3,09,23,02,05,07,13,30,28,,,,,1.37,1.11,0.80*0D

$GPGSV,3,1,11,30,73,175,18,07,62,063,42,05,52,302,25,09,33,080,48*7F

$GPGSV,3,2,11,02,30,241,27,13,22,270,24,40,19,121,39,06,16,203,27*7B

$GPGSV,3,3,11,28,11,153,28,23,05,087,17,16,03,023,*46

$GPRMC,093503.000,A,4511.7786,N,00542.6107,E,0.00,331.19,060219,,,D*6E

$GPGGA,093504.000,4511.7786,N,00542.6107,E,2,8,1.11,223.0,M,48.5,M,0000,0000*5B

$GPGSA,A,3,09,23,02,05,07,13,30,28,,,,,1.37,1.11,0.80*0D

$GPGSV,3,1,11,30,73,175,25,07,62,063,43,05,52,302,20,09,33,080,48*75

$GPGSV,3,2,11,02,30,241,26,13,22,270,24,40,19,121,39,06,16,203,26*7B

$GPGSV,3,3,11,28,11,153,28,23,05,087,17,16,03,023,*46

$GPRMC,093504.000,A,4511.7786,N,00542.6107,E,0.00,331.19,060219,,,D*69

$GPGGA,093505.000,4511.7786,N,00542.6107,E,2,8,1.11,223.0,M,48.5,M,0000,0000*5A

$GPGSA,A,3,09,23,02,05,07,13,30,28,,,,,1.37,1.11,0.80*0D

$GPGSV,3,1,11,30,73,175,29,07,62,063,43,05,52,302,20,09,33,080,48*79

$GPGSV,3,2,11,02,30,241,26,13,22,270,24,40,19,121,39,06,16,203,25*78

$GPGSV,3,3,11,28,11,153,28,23,05,087,16,16,03,023,*47

$GPRMC,093505.000,A,4511.7786,N,00542.6107,E,0.00,331.19,060219,,,D*68

$GPGGA,093506.000,4511.7786,N,00542.6107,E,2,8,1.11,223.0,M,48.5,M,0000,0000*59

$GPGSA,A,3,09,23,02,05,07,13,30,28,,,,,1.37,1.11,0.80*0D

$GPGSV,3,1,11,30,73,175,27,07,62,063,43,05,52,302,22,09,33,080,48*75

$GPGSV,3,2,11,02,30,241,25,13,22,270,23,40,19,121,39,06,16,203,24*7D

$GPGSV,3,3,11,28,11,153,28,23,05,087,15,16,03,023,*44

$GPRMC,093506.000,A,4511.7786,N,00542.6107,E,0.00,331.19,060219,,,D*6B

$GPGGA,093507.000,4511.7786,N,00542.6107,E,2,8,1.11,223.0,M,48.5,M,0000,0000*58

$GPGSA,A,3,09,23,02,05,07,13,30,28,,,,,1.37,1.11,0.80*0D

$GPGSV,3,1,11,30,73,175,25,07,62,063,43,05,52,302,23,09,33,080,48*76

$GPGSV,3,2,11,02,30,241,24,13,22,271,23,40,19,121,39,06,16,203,22*7B

$GPGSV,3,3,11,28,11,153,28,23,05,087,13,16,03,023,*42

$GPRMC,093507.000,A,4511.7786,N,00542.6107,E,0.00,331.19,060219,,,D*6A

$GPGGA,093508.000,4511.7786,N,00542.6107,E,2,8,1.12,223.0,M,48.5,M,0000,0000*54

$GPGSA,A,3,09,23,02,05,07,13,30,28,,,,,1.37,1.12,0.80*0E

$GPGSV,3,1,11,30,73,175,25,07,62,063,43,05,52,302,21,09,33,080,48*74

$GPGSV,3,2,11,02,30,241,23,13,22,271,23,40,19,121,39,06,16,203,*7C

$GPGSV,3,3,11,28,11,153,27,23,05,087,14,16,03,023,*4A

$GPRMC,093508.000,A,4511.7786,N,00542.6107,E,0.00,331.19,060219,,,D*65

$GPGGA,093509.000,4511.7786,N,00542.6107,E,2,8,1.17,223.0,M,48.5,M,0000,0000*50

$GPGSA,A,3,09,23,02,05,07,13,30,28,,,,,1.77,1.17,1.33*06

$GPGSV,3,1,11,30,73,175,25,07,62,063,43,05,52,302,23,09,33,080,48*76

$GPGSV,3,2,11,02,30,241,22,13,22,271,22,40,19,121,39,06,16,203,*7C

$GPGSV,3,3,11,28,11,153,27,23,05,087,13,16,03,023,*4D

$GPRMC,093509.000,A,4511.7786,N,00542.6107,E,0.00,331.19,060219,,,D*64

$GPGGA,093510.000,4511.7786,N,00542.6107,E,2,8,1.11,223.0,M,48.5,M,0000,0000*5E

$GPGSA,A,3,09,23,02,05,07,13,30,28,,,,,1.37,1.11,0.80*0D

$GPGSV,3,1,11,30,73,175,23,07,62,063,44,05,52,302,24,09,33,080,48*70

$GPGSV,3,2,11,02,30,241,21,13,22,271,23,40,19,121,39,06,16,203,21*7D

$GPGSV,3,3,11,28,11,153,27,23,05,087,15,16,03,023,*4B

$GPRMC,093510.000,A,4511.7786,N,00542.6107,E,0.00,331.19,060219,,,D*6C

$GPGGA,093511.000,4511.7786,N,00542.6107,E,2,8,1.11,223.0,M,48.5,M,0000,0000*5F

$GPGSA,A,3,09,23,02,05,07,13,30,28,,,,,1.37,1.11,0.80*0D

$GPGSV,3,1,11,30,73,175,22,07,62,063,44,05,52,302,26,09,33,080,47*7C

$GPGSV,3,2,11,02,30,241,19,13,22,271,22,40,19,121,39,06,16,203,24*72

$GPGSV,3,3,11,28,11,153,28,23,05,087,14,16,03,023,*45

$GPRMC,093511.000,A,4511.7786,N,00542.6107,E,0.00,331.19,060219,,,D*6D

$GPGGA,093512.000,4511.7786,N,00542.6107,E,2,8,1.11,223.0,M,48.5,M,0000,0000*5C

$GPGSA,A,3,09,23,02,05,07,13,30,28,,,,,1.37,1.11,0.80*0D

$GPGSV,3,1,11,30,73,175,21,07,62,063,44,05,52,302,30,09,33,080,47*78

$GPGSV,3,2,11,02,30,241,16,13,22,271,24,40,19,121,39,06,16,203,27*78

$GPGSV,3,3,11,28,11,153,28,23,05,087,15,16,03,023,*44

$GPRMC,093512.000,A,4511.7786,N,00542.6107,E,0.00,331.19,060219,,,D*6E

$GPGGA,093513.000,4511.7786,N,00542.6107,E,2,8,1.11,223.0,M,48.5,M,0000,0000*5D

$GPGSA,A,3,09,23,02,05,07,13,30,28,,,,,1.37,1.11,0.80*0D

$GPGSV,3,1,11,30,73,175,19,07,62,063,44,05,52,302,30,09,33,080,47*73

$GPGSV,3,2,11,02,30,241,19,13,22,271,20,40,19,121,39,06,16,203,28*7C

$GPGSV,3,3,11,28,11,153,28,23,05,087,15,16,03,023,*44

$GPRMC,093513.000,A,4511.7786,N,00542.6107,E,0.00,331.19,060219,,,D*6F

$GPGGA,093514.000,4511.7786,N,00542.6107,E,2,8,1.11,223.0,M,48.5,M,0000,0000*5A

$GPGSA,A,3,09,23,02,05,07,13,30,28,,,,,1.37,1.11,0.80*0D

$GPGSV,3,1,11,30,73,175,16,07,62,063,44,05,52,302,33,09,33,080,47*7F

$GPGSV,3,2,11,02,30,241,24,13,22,271,20,40,19,121,39,06,16,203,28*72

$GPGSV,3,3,11,28,11,153,28,23,05,087,15,16,03,023,*44

$GPRMC,093514.000,A,4511.7786,N,00542.6107,E,0.00,331.19,060219,,,D*68

$GPGGA,093515.000,4511.7786,N,00542.6107,E,2,8,1.11,223.0,M,48.5,M,0000,0000*5B

$GPGSA,A,3,09,23,02,05,07,13,30,28,,,,,1.37,1.11,0.80*0D

$GPGSV,3,1,11,30,73,175,16,07,62,063,44,05,52,302,32,09,33,080,47*7E

$GPGSV,3,2,11,02,30,241,28,13,22,271,17,40,19,121,39,06,16,203,31*72

$GPGSV,3,3,11,28,11,153,28,23,05,087,14,16,03,023,*45

$GPRMC,093515.000,A,4511.7786,N,00542.6107,E,0.00,331.19,060219,,,D*69

$GPGGA,093516.000,4511.7786,N,00542.6107,E,2,8,1.11,223.0,M,48.5,M,0000,0000*58

$GPGSA,A,3,09,23,02,05,07,13,30,28,,,,,1.37,1.11,0.80*0D

$GPGSV,3,1,11,30,73,175,23,07,62,063,44,05,52,302,32,09,33,080,47*78

$GPGSV,3,2,11,02,30,241,26,13,22,271,17,40,19,121,39,06,16,203,31*7C

$GPGSV,3,3,11,28,11,153,28,23,05,087,13,16,03,023,*42

$GPRMC,093516.000,A,4511.7786,N,00542.6107,E,0.00,331.19,060219,,,D*6A

$GPGGA,093517.000,4511.7786,N,00542.6107,E,2,8,1.11,223.0,M,48.5,M,0000,0000*59

$GPGSA,A,3,09,23,02,05,07,13,30,28,,,,,1.37,1.11,0.80*0D

$GPGSV,3,1,11,30,73,175,28,07,62,063,44,05,52,302,32,09,33,080,47*73

$GPGSV,3,2,11,02,30,241,25,13,22,271,17,40,19,121,39,06,16,203,31*7F

$GPGSV,3,3,11,28,11,153,28,23,05,087,13,16,03,023,*42

$GPRMC,093517.000,A,4511.7786,N,00542.6107,E,0.00,331.19,060219,,,D*6B

$GPGGA,093518.000,4511.7786,N,00542.6107,E,2,8,1.11,223.0,M,48.5,M,0000,0000*56

$GPGSA,A,3,09,23,02,05,07,13,30,28,,,,,1.37,1.11,0.80*0D

$GPGSV,3,1,11,30,73,175,29,07,62,063,44,05,52,302,31,09,33,080,47*71

$GPGSV,3,2,11,02,30,241,26,13,22,271,17,40,19,121,39,06,16,203,32*7F

$GPGSV,3,3,11,28,11,153,28,23,05,087,13,16,03,023,*42

$GPRMC,093518.000,A,4511.7786,N,00542.6107,E,0.00,331.19,060219,,,D*64

$GPGGA,093519.000,4511.7786,N,00542.6107,E,2,8,1.11,223.0,M,48.5,M,0000,0000*57

$GPGSA,A,3,09,23,02,05,07,13,30,28,,,,,1.37,1.11,0.80*0D

$GPGSV,3,1,11,30,73,175,30,07,62,063,44,05,52,302,31,09,33,080,47*79

$GPGSV,3,2,11,02,30,241,24,13,22,271,15,40,19,121,39,06,16,203,32*7F

$GPGSV,3,3,11,28,11,153,28,23,05,087,12,16,03,023,*43

$GPRMC,093519.000,A,4511.7786,N,00542.6107,E,0.00,331.19,060219,,,D*65

$GPGGA,093520.000,4511.7786,N,00542.6107,E,2,8,1.11,223.0,M,48.5,M,0000,0000*5D

$GPGSA,A,3,09,23,02,05,07,13,30,28,,,,,1.37,1.11,0.80*0D

$GPGSV,3,1,11,30,73,175,30,07,62,063,44,05,52,302,31,09,33,080,46*78

$GPGSV,3,2,11,02,30,241,23,13,22,271,15,40,19,121,39,06,16,203,32*78

$GPGSV,3,3,11,28,11,153,28,23,05,087,14,16,03,023,*45

$GPRMC,093520.000,A,4511.7786,N,00542.6107,E,0.00,331.19,060219,,,D*6F

$GPGGA,093521.000,4511.7786,N,00542.6107,E,2,8,1.11,223.0,M,48.5,M,0000,0000*5C

$GPGSA,A,3,09,23,02,05,07,13,30,28,,,,,1.37,1.11,0.80*0D

$GPGSV,3,1,11,30,73,175,30,07,62,063,44,05,52,302,31,09,33,080,46*78

$GPGSV,3,2,11,02,30,241,21,13,22,271,24,40,19,121,39,06,16,203,31*7B

$GPGSV,3,3,11,28,11,153,28,23,05,087,13,16,03,023,*42

$GPRMC,093521.000,A,4511.7786,N,00542.6107,E,0.00,331.19,060219,,,D*6E

$GPGGA,093522.000,4511.7786,N,00542.6107,E,2,8,1.17,223.0,M,48.5,M,0000,0000*59

$GPGSA,A,3,09,23,02,05,07,13,30,28,,,,,1.77,1.17,1.33*06

$GPGSV,3,1,11,30,73,175,30,07,62,063,44,05,52,302,31,09,33,080,46*78

$GPGSV,3,2,11,02,30,241,23,13,22,271,24,40,19,121,39,06,16,203,31*79

$GPGSV,3,3,11,28,11,153,28,23,05,087,14,16,03,023,*45

$GPRMC,093522.000,A,4511.7786,N,00542.6107,E,0.00,331.19,060219,,,D*6D

$GPGGA,093523.000,4511.7786,N,00542.6107,E,2,8,1.11,223.0,M,48.5,M,0000,0000*5E

$GPGSA,A,3,09,23,02,05,07,13,30,28,,,,,1.37,1.11,0.80*0D

$GPGSV,3,1,11,30,73,175,30,07,62,063,44,05,52,302,31,09,33,080,46*78

$GPGSV,3,2,11,02,30,241,23,13,22,271,25,40,19,121,39,06,16,203,31*78

$GPGSV,3,3,11,28,11,153,28,23,05,087,14,16,03,023,*45

$GPRMC,093523.000,A,4511.7786,N,00542.6107,E,0.00,331.19,060219,,,D*6C

$GPGGA,093524.000,4511.7786,N,00542.6107,E,2,8,1.17,223.0,M,48.5,M,0000,0000*5F

$GPGSA,A,3,09,23,02,05,07,13,30,28,,,,,1.77,1.17,1.33*06

$GPGSV,3,1,11,30,74,175,30,07,62,063,44,05,52,302,30,09,33,080,46*7E

$GPGSV,3,2,11,02,30,241,25,13,22,271,25,40,19,121,39,06,16,203,31*7E

$GPGSV,3,3,11,28,11,153,28,23,05,087,13,16,03,023,*42

$GPRMC,093524.000,A,4511.7786,N,00542.6107,E,0.00,331.19,060219,,,D*6B

$GPGGA,093525.000,4511.7786,N,00542.6107,E,2,9,0.98,223.0,M,48.5,M,0000,0000*59

$GPGSA,A,3,09,23,02,05,07,13,30,06,28,,,,1.27,0.98,0.80*0A

$GPGSV,3,1,11,30,74,175,30,07,62,063,44,05,52,302,27,09,33,080,46*78

$GPGSV,3,2,11,02,30,241,28,13,22,271,26,40,19,121,39,06,16,203,30*71

$GPGSV,3,3,11,28,11,153,28,23,05,087,14,16,03,023,*45

$GPRMC,093525.000,A,4511.7786,N,00542.6107,E,0.00,331.19,060219,,,D*6A

$GPGGA,093526.000,4511.7786,N,00542.6107,E,2,9,0.98,223.0,M,48.5,M,0000,0000*5A

$GPGSA,A,3,09,23,02,05,07,13,30,06,28,,,,1.27,0.98,0.80*0A

$GPGSV,3,1,11,30,74,175,30,07,62,063,44,05,52,302,25,09,33,080,46*7A

$GPGSV,3,2,11,02,30,241,28,13,22,271,25,40,19,121,39,06,16,203,29*7A

$GPGSV,3,3,11,28,11,153,28,23,05,087,15,16,03,023,*44

$GPRMC,093526.000,A,4511.7786,N,00542.6107,E,0.00,331.19,060219,,,D*69

$GPGGA,093527.000,4511.7786,N,00542.6107,E,2,9,0.98,223.0,M,48.5,M,0000,0000*5B

$GPGSA,A,3,09,23,02,05,07,13,30,06,28,,,,1.27,0.98,0.80*0A

$GPGSV,3,1,11,30,74,175,29,07,62,063,44,05,52,302,25,09,33,080,46*72

$GPGSV,3,2,11,02,30,241,27,13,22,271,24,40,19,121,39,06,16,203,28*75

$GPGSV,3,3,11,28,11,153,28,23,05,087,15,16,03,023,*44

$GPRMC,093527.000,A,4511.7786,N,00542.6107,E,0.00,331.19,060219,,,D*68

$GPGGA,093528.000,4511.7786,N,00542.6107,E,2,8,1.12,223.0,M,48.5,M,0000,0000*56

$GPGSA,A,3,09,23,02,05,07,13,30,28,,,,,1.37,1.12,0.80*0E

$GPGSV,3,1,11,30,74,175,29,07,62,063,44,05,52,302,25,09,33,080,46*72

$GPGSV,3,2,11,02,30,241,28,13,22,271,23,40,19,121,39,06,16,203,22*77

$GPGSV,3,3,11,28,11,153,27,23,05,087,15,16,03,023,*4B

$GPRMC,093528.000,A,4511.7786,N,00542.6107,E,0.00,331.19,060219,,,D*67

$GPGGA,093529.000,4511.7786,N,00542.6107,E,2,8,1.11,223.0,M,48.5,M,0000,0000*54

$GPGSA,A,3,09,23,02,05,07,13,30,28,,,,,1.37,1.11,0.80*0D

$GPGSV,3,1,11,30,74,175,28,07,62,063,44,05,52,302,24,09,33,080,46*72

$GPGSV,3,2,11,02,30,241,27,13,22,271,21,40,19,121,39,06,16,203,21*79

$GPGSV,3,3,11,28,11,153,27,23,05,087,14,16,03,023,*4A

$GPRMC,093529.000,A,4511.7786,N,00542.6107,E,0.00,331.19,060219,,,D*66

$GPGGA,093530.000,4511.7786,N,00542.6107,E,2,8,1.12,223.0,M,48.5,M,0000,0000*5F

$GPGSA,A,3,09,23,02,05,07,13,30,28,,,,,1.37,1.12,0.80*0E

$GPGSV,3,1,11,30,74,175,22,07,62,063,44,05,52,302,25,09,33,080,46*79

$GPGSV,3,2,11,02,30,241,26,13,22,271,15,40,19,121,39,06,16,203,23*7D

$GPGSV,3,3,11,28,11,153,27,23,05,087,14,16,03,023,*4A

$GPRMC,093530.000,A,4511.7786,N,00542.6107,E,0.00,331.19,060219,,,D*6E

$GPGGA,093531.000,4511.7786,N,00542.6107,E,2,8,1.12,223.0,M,48.5,M,0000,0000*5E

$GPGSA,A,3,09,23,02,05,07,13,30,28,,,,,1.37,1.12,0.80*0E

$GPGSV,3,1,11,30,74,175,20,07,62,063,44,05,52,302,26,09,33,080,46*78

$GPGSV,3,2,11,02,30,241,26,13,22,271,16,40,19,121,39,06,16,203,18*76

$GPGSV,3,3,11,28,11,153,27,23,05,087,14,16,03,023,*4A

$GPRMC,093531.000,A,4511.7786,N,00542.6107,E,0.00,331.19,060219,,,D*6F

$GPGGA,093532.000,4511.7786,N,00542.6107,E,2,8,1.12,223.0,M,48.5,M,0000,0000*5D

$GPGSA,A,3,09,23,02,05,07,13,30,28,,,,,1.37,1.12,0.80*0E

$GPGSV,3,1,11,30,74,175,21,07,62,063,44,05,52,302,27,09,33,080,46*78

$GPGSV,3,2,11,02,30,241,26,13,22,271,17,40,19,121,39,06,16,203,17*78

$GPGSV,3,3,11,28,11,153,27,23,05,087,15,16,03,023,*4B

$GPRMC,093532.000,A,4511.7786,N,00542.6107,E,0.00,331.19,060219,,,D*6C

$GPGGA,093533.000,4511.7786,N,00542.6107,E,2,8,1.12,223.0,M,48.5,M,0000,0000*5C

$GPGSA,A,3,09,23,02,05,07,13,30,28,,,,,1.37,1.12,0.80*0E

$GPGSV,3,1,11,30,74,175,21,07,62,063,44,05,52,302,28,09,33,080,47*76

$GPGSV,3,2,11,02,30,241,26,13,22,271,17,40,19,121,39,06,16,203,14*7B

$GPGSV,3,3,11,28,11,153,27,23,05,087,14,16,03,023,*4A

$GPRMC,093533.000,A,4511.7786,N,00542.6107,E,0.00,331.19,060219,,,D*6D

$GPGGA,093534.000,4511.7786,N,00542.6107,E,2,8,1.12,223.0,M,48.5,M,0000,0000*5B

$GPGSA,A,3,09,23,02,05,07,13,30,28,,,,,1.37,1.12,0.80*0E

$GPGSV,3,1,11,30,74,175,24,07,62,063,44,05,53,302,26,09,33,080,47*7C

$GPGSV,3,2,11,02,30,241,24,13,22,271,17,40,19,121,39,06,16,203,15*78

$GPGSV,3,3,11,28,11,153,27,23,05,087,15,16,03,023,*4B

$GPRMC,093534.000,A,4511.7786,N,00542.6107,E,0.00,331.19,060219,,,D*6A

$GPGGA,093535.000,4511.7786,N,00542.6107,E,2,8,1.12,223.0,M,48.5,M,0000,0000*5A

$GPGSA,A,3,09,23,02,05,07,13,30,28,,,,,1.37,1.12,0.80*0E

$GPGSV,3,1,11,30,74,175,25,07,62,063,44,05,53,302,25,09,33,080,47*7E

$GPGSV,3,2,11,02,30,241,24,13,22,271,18,40,19,121,39,06,15,203,16*77

$GPGSV,3,3,11,28,11,153,25,23,05,087,13,16,03,023,*4F

$GPRMC,093535.000,A,4511.7786,N,00542.6107,E,0.00,331.19,060219,,,D*6B

$GPGGA,093536.000,4511.7786,N,00542.6107,E,2,8,1.12,223.0,M,48.5,M,0000,0000*59

$GPGSA,A,3,09,23,02,05,07,13,30,28,,,,,1.37,1.12,0.80*0E

$GPGSV,3,1,11,30,74,175,27,07,61,063,44,05,53,302,20,09,33,080,47*7A

$GPGSV,3,2,11,02,30,241,24,13,22,271,21,40,19,121,39,06,15,203,16*7D

$GPGSV,3,3,11,28,11,153,24,23,05,087,14,16,03,023,*49

$GPRMC,093536.000,A,4511.7786,N,00542.6107,E,0.00,331.19,060219,,,D*68

$GPGGA,093537.000,4511.7786,N,00542.6107,E,2,8,1.11,223.0,M,48.5,M,0000,0000*5B

$GPGSA,A,3,09,23,02,05,07,13,30,28,,,,,1.37,1.11,0.80*0D

$GPGSV,3,1,11,30,74,175,28,07,61,063,44,05,53,302,18,09,33,080,48*71

$GPGSV,3,2,11,02,30,241,25,13,22,271,24,40,19,121,39,06,15,203,17*78

$GPGSV,3,3,11,28,11,153,23,23,05,087,15,16,03,023,*4F

$GPRMC,093537.000,A,4511.7786,N,00542.6107,E,0.00,331.19,060219,,,D*69

$GPGGA,093538.000,4511.7786,N,00542.6107,E,2,8,1.12,223.0,M,48.5,M,0000,0000*57

$GPGSA,A,3,09,23,02,05,07,13,30,28,,,,,1.37,1.12,0.80*0E

$GPGSV,3,1,11,30,74,175,29,07,61,063,44,05,53,302,15,09,33,081,48*7C

$GPGSV,3,2,11,02,30,241,26,13,22,271,23,40,19,121,39,06,15,203,18*73

$GPGSV,3,3,11,28,11,153,21,23,05,087,15,16,03,023,*4D

$GPRMC,093538.000,A,4511.7786,N,00542.6107,E,0.00,331.19,060219,,,D*66

$GPGGA,093539.000,4511.7786,N,00542.6107,E,2,9,0.98,223.0,M,48.5,M,0000,0000*54

$GPGSA,A,3,09,23,02,05,07,13,30,06,28,,,,1.27,0.98,0.80*0A

$GPGSV,3,1,11,30,74,175,29,07,61,063,44,05,53,302,14,09,33,081,48*7D

$GPGSV,3,2,11,02,30,241,25,13,22,271,24,40,19,121,39,06,15,203,19*76

$GPGSV,3,3,11,28,11,153,23,23,05,087,14,16,03,023,*4E

$GPRMC,093539.000,A,4511.7786,N,00542.6107,E,0.00,331.19,060219,,,D*67

$GPGGA,093540.000,4511.7786,N,00542.6107,E,2,9,0.98,223.0,M,48.5,M,0000,0000*5A

$GPGSA,A,3,09,23,02,05,07,13,30,06,28,,,,1.27,0.98,0.80*0A

$GPGSV,3,1,11,30,74,175,29,07,61,063,44,05,53,302,14,09,33,081,48*7D

$GPGSV,3,2,11,02,30,241,26,13,22,271,24,40,19,121,39,06,15,203,20*7F

$GPGSV,3,3,11,28,11,153,22,23,05,087,14,16,03,023,*4F

$GPRMC,093540.000,A,4511.7786,N,00542.6107,E,0.00,331.19,060219,,,D*69

$GPGGA,093541.000,4511.7786,N,00542.6107,E,2,9,0.98,223.0,M,48.5,M,0000,0000*5B

$GPGSA,A,3,09,23,02,05,07,13,30,06,28,,,,1.27,0.98,0.80*0A

$GPGSV,3,1,11,30,74,175,29,07,61,063,44,05,53,302,17,09,33,081,48*7E

$GPGSV,3,2,11,02,30,241,25,13,22,271,24,40,19,121,39,06,15,203,20*7C

$GPGSV,3,3,11,28,11,153,22,23,05,087,15,16,03,023,*4E

$GPRMC,093541.000,A,4511.7786,N,00542.6107,E,0.00,331.19,060219,,,D*68

$GPGGA,093542.000,4511.7786,N,00542.6107,E,2,9,1.05,223.0,M,48.5,M,0000,0000*5D

$GPGSA,A,3,09,23,02,05,07,13,30,06,28,,,,1.70,1.05,1.33*04

$GPGSV,3,1,11,30,74,175,29,07,61,063,44,05,53,302,24,09,33,081,49*7F

$GPGSV,3,2,11,02,30,241,24,13,22,271,26,40,19,121,39,06,15,203,20*7F

$GPGSV,3,3,11,28,11,153,23,23,05,087,15,16,03,023,*4F

$GPRMC,093542.000,A,4511.7786,N,00542.6107,E,0.00,331.19,060219,,,D*6B

$GPGGA,093543.000,4511.7786,N,00542.6107,E,2,9,0.98,223.0,M,48.5,M,0000,0000*59

$GPGSA,A,3,09,23,02,05,07,13,30,06,28,,,,1.27,0.98,0.80*0A

$GPGSV,3,1,11,30,74,175,29,07,61,063,44,05,53,302,28,09,33,081,49*73

$GPGSV,3,2,11,02,30,241,23,13,22,271,24,40,19,121,39,06,15,203,20*7A

$GPGSV,3,3,11,28,11,153,22,23,05,087,15,16,03,023,*4E

$GPRMC,093543.000,A,4511.7786,N,00542.6107,E,0.00,331.19,060219,,,D*6A

$GPGGA,093544.000,4511.7786,N,00542.6107,E,2,9,0.98,223.0,M,48.5,M,0000,0000*5E

$GPGSA,A,3,09,23,02,05,07,13,30,06,28,,,,1.27,0.98,0.80*0A

$GPGSV,3,1,11,30,74,175,29,07,61,063,44,05,53,302,29,09,33,081,49*72

$GPGSV,3,2,11,02,30,241,21,13,22,271,25,40,19,121,39,06,15,203,20*79

$GPGSV,3,3,11,28,11,153,22,23,05,087,13,16,03,023,*48

$GPRMC,093544.000,A,4511.7786,N,00542.6107,E,0.00,331.19,060219,,,D*6D

$GPGGA,093545.000,4511.7786,N,00542.6107,E,2,9,0.98,223.0,M,48.5,M,0000,0000*5F

$GPGSA,A,3,09,23,02,05,07,13,30,06,28,,,,1.27,0.98,0.80*0A

$GPGSV,3,1,11,30,74,175,28,07,61,063,44,05,53,302,29,09,33,081,49*73

$GPGSV,3,2,11,02,30,241,18,13,22,271,26,40,19,121,39,06,15,203,18*7B

$GPGSV,3,3,11,28,11,153,21,23,05,087,13,16,02,022,*4B

$GPRMC,093545.000,A,4511.7786,N,00542.6107,E,0.00,331.19,060219,,,D*6C

$GPGGA,093546.000,4511.7786,N,00542.6107,E,2,9,0.98,223.0,M,48.5,M,0000,0000*5C

$GPGSA,A,3,09,23,02,05,07,13,30,06,28,,,,1.27,0.98,0.80*0A

$GPGSV,3,1,11,30,74,175,28,07,61,063,44,05,53,302,28,09,33,081,49*72

$GPGSV,3,2,11,02,30,241,17,13,22,271,27,40,19,121,39,06,15,203,20*7E

$GPGSV,3,3,11,28,11,153,21,23,05,087,13,16,02,022,*4B

$GPRMC,093546.000,A,4511.7786,N,00542.6107,E,0.00,331.19,060219,,,D*6F

$GPGGA,093547.000,4511.7786,N,00542.6107,E,2,9,0.98,223.0,M,48.5,M,0000,0000*5D

$GPGSA,A,3,09,23,02,05,07,13,30,06,28,,,,1.27,0.98,0.80*0A

$GPGSV,3,1,11,30,74,175,28,07,61,063,44,05,53,302,21,09,33,081,49*7B

$GPGSV,3,2,11,02,30,241,17,13,22,271,26,40,19,121,39,06,15,203,20*7F

$GPGSV,3,3,11,28,11,153,19,23,05,087,12,16,02,022,*41

$GPRMC,093547.000,A,4511.7786,N,00542.6107,E,0.00,331.19,060219,,,D*6E

$GPGGA,093548.000,4511.7786,N,00542.6107,E,2,9,1.05,223.0,M,48.5,M,0000,0000*57

$GPGSA,A,3,09,23,02,05,07,13,30,06,28,,,,1.70,1.05,1.33*04

$GPGSV,3,1,11,30,74,175,27,07,61,063,44,05,53,302,18,09,33,081,49*7E

$GPGSV,3,2,11,02,30,241,21,13,22,271,27,40,19,121,39,06,15,203,21*7A

$GPGSV,3,3,11,28,11,153,19,23,05,087,11,16,02,022,*42

$GPRMC,093548.000,A,4511.7786,N,00542.6107,E,0.00,331.19,060219,,,D*61

$GPGGA,093549.000,4511.7786,N,00542.6107,E,2,9,0.98,223.0,M,48.5,M,0000,0000*53

$GPGSA,A,3,09,23,02,05,07,13,30,06,28,,,,1.27,0.98,0.80*0A

$GPGSV,3,1,11,30,74,175,27,07,61,063,44,05,53,302,22,09,33,081,49*77

$GPGSV,3,2,11,02,30,241,22,13,22,271,26,40,19,121,39,06,15,203,24*7D

$GPGSV,3,3,11,28,11,153,21,23,05,087,12,16,02,022,*4A

$GPRMC,093549.000,A,4511.7786,N,00542.6107,E,0.00,331.19,060219,,,D*60

$GPGGA,093550.000,4511.7786,N,00542.6107,E,2,8,1.06,223.0,M,48.5,M,0000,0000*5C

$GPGSA,A,3,09,02,05,07,13,30,06,28,,,,,1.37,1.06,0.88*04

$GPGSV,3,1,11,30,74,175,27,07,61,063,44,05,53,302,26,09,33,081,49*73

$GPGSV,3,2,11,02,30,241,25,13,22,271,26,40,19,121,39,06,15,203,25*7B

$GPGSV,3,3,11,28,11,153,22,23,05,087,,16,02,022,*4A

$GPRMC,093550.000,A,4511.7786,N,00542.6107,E,0.00,331.19,060219,,,D*68

$GPGGA,093551.000,4511.7786,N,00542.6107,E,2,8,1.06,223.0,M,48.5,M,0000,0000*5D

$GPGSA,A,3,09,02,05,07,13,30,06,28,,,,,1.37,1.06,0.88*04

$GPGSV,3,1,11,30,74,175,27,07,61,063,44,05,53,302,29,09,33,081,49*7C

$GPGSV,3,2,11,02,30,241,26,13,22,271,26,40,19,121,39,06,15,203,25*78

$GPGSV,3,3,11,28,11,153,21,23,05,087,,16,02,022,*49

$GPRMC,093551.000,A,4511.7786,N,00542.6107,E,0.00,331.19,060219,,,D*69

$GPGGA,093552.000,4511.7786,N,00542.6107,E,2,8,1.06,223.0,M,48.5,M,0000,0000*5E

$GPGSA,A,3,09,02,05,07,13,30,06,28,,,,,1.37,1.06,0.88*04

$GPGSV,3,1,11,30,74,175,27,07,61,063,44,05,53,302,29,09,33,081,49*7C

$GPGSV,3,2,11,02,30,241,27,13,22,271,25,40,19,121,39,06,15,203,26*79

$GPGSV,3,3,11,28,11,153,20,23,05,087,,16,02,022,*48

$GPRMC,093552.000,A,4511.7786,N,00542.6107,E,0.00,331.19,060219,,,D*6A

$GPGGA,093553.000,4511.7786,N,00542.6107,E,2,8,1.06,223.0,M,48.5,M,0000,0000*5F

$GPGSA,A,3,09,02,05,07,13,30,06,28,,,,,1.37,1.06,0.88*04

$GPGSV,3,1,11,30,74,175,27,07,61,063,44,05,53,302,29,09,33,081,49*7C

$GPGSV,3,2,11,02,30,241,27,13,22,271,18,40,19,121,39,06,15,203,27*76

$GPGSV,3,3,11,28,11,153,20,23,05,087,,16,02,022,*48

$GPRMC,093553.000,A,4511.7786,N,00542.6107,E,0.00,331.19,060219,,,D*6B

$GPGGA,093554.000,4511.7786,N,00542.6107,E,2,8,1.06,223.0,M,48.5,M,0000,0000*58

$GPGSA,A,3,09,02,05,07,13,30,06,28,,,,,1.37,1.06,0.88*04

$GPGSV,3,1,11,30,74,175,27,07,61,063,44,05,53,302,29,09,33,081,49*7C

$GPGSV,3,2,11,02,30,241,28,13,22,271,18,40,19,121,39,06,15,203,28*76

$GPGSV,3,3,11,28,11,153,20,23,05,087,,16,02,022,*48

$GPRMC,093554.000,A,4511.7786,N,00542.6107,E,0.00,331.19,060219,,,D*6C

$GPGGA,093555.000,4511.7786,N,00542.6107,E,2,8,1.06,223.0,M,48.5,M,0000,0000*59

$GPGSA,A,3,09,02,05,07,13,30,06,28,,,,,1.37,1.06,0.88*04

$GPGSV,3,1,11,30,74,175,27,07,61,063,44,05,53,302,29,09,33,081,49*7C

$GPGSV,3,2,11,02,30,241,27,13,22,271,16,40,19,121,39,06,15,203,29*76

$GPGSV,3,3,11,28,11,153,20,23,05,087,,16,02,022,*48

$GPRMC,093555.000,A,4511.7786,N,00542.6107,E,0.00,331.19,060219,,,D*6D

$GPGGA,093556.000,4511.7786,N,00542.6107,E,2,8,1.06,223.0,M,48.5,M,0000,0000*5A

$GPGSA,A,3,09,02,05,07,13,30,06,28,,,,,1.37,1.06,0.88*04

$GPGSV,3,1,11,30,74,175,28,07,61,063,44,05,53,302,28,09,33,081,49*72

$GPGSV,3,2,11,02,30,241,26,13,22,271,17,40,19,121,39,06,15,203,30*7E

$GPGSV,3,3,11,28,11,153,20,23,05,087,,16,02,022,*48

$GPRMC,093556.000,A,4511.7786,N,00542.6107,E,0.00,331.19,060219,,,D*6E

$GPGGA,093557.000,4511.7786,N,00542.6107,E,2,8,1.24,223.0,M,48.5,M,0000,0000*5B

$GPGSA,A,3,09,02,05,07,13,30,06,28,,,,,2.20,1.24,1.82*0A

$GPGSV,3,1,11,30,74,175,29,07,61,063,44,05,53,302,27,09,33,081,49*7C

$GPGSV,3,2,11,02,30,241,25,13,22,271,19,40,19,121,39,06,15,203,31*72

$GPGSV,3,3,11,28,11,153,20,23,05,087,,16,02,022,*48

$GPRMC,093557.000,A,4511.7786,N,00542.6107,E,0.00,331.19,060219,,,D*6F

$GPGGA,093558.000,4511.7786,N,00542.6107,E,2,8,1.06,223.0,M,48.5,M,0000,0000*54

$GPGSA,A,3,09,02,05,07,13,30,06,28,,,,,1.37,1.06,0.88*04

$GPGSV,3,1,11,30,74,175,30,07,61,063,44,05,53,302,27,09,33,081,49*74

$GPGSV,3,2,11,02,30,241,23,13,22,271,22,40,19,121,39,06,15,203,31*7C

$GPGSV,3,3,11,28,11,153,21,23,05,087,,16,02,022,*49

$GPRMC,093558.000,A,4511.7786,N,00542.6107,E,0.00,331.19,060219,,,D*60

$GPGGA,093559.000,4511.7786,N,00542.6107,E,2,8,1.06,223.0,M,48.5,M,0000,0000*55

$GPGSA,A,3,09,02,05,07,13,30,06,28,,,,,1.37,1.06,0.88*04

$GPGSV,3,1,11,30,74,174,31,07,61,063,44,05,53,302,27,09,33,081,49*74

$GPGSV,3,2,11,02,30,241,22,13,22,271,23,40,19,121,39,06,15,203,31*7C

$GPGSV,3,3,11,28,11,153,21,23,05,087,,16,02,022,*49

$GPRMC,093559.000,A,4511.7786,N,00542.6107,E,0.00,331.19,060219,,,D*61

$GPGGA,093600.000,4511.7786,N,00542.6107,E,2,8,1.06,223.0,M,48.5,M,0000,0000*5A

$GPGSA,A,3,09,02,05,07,13,30,06,28,,,,,1.37,1.06,0.88*04

$GPGSV,3,1,11,30,74,174,32,07,61,063,44,05,53,302,27,09,33,081,49*77

$GPGSV,3,2,11,02,30,241,20,13,22,271,23,40,19,121,39,06,15,203,30*7F

$GPGSV,3,3,11,28,11,153,21,23,05,087,,16,02,022,*49

$GPRMC,093600.000,A,4511.7786,N,00542.6107,E,0.00,331.19,060219,,,D*6E

$GPGGA,093601.000,4511.7786,N,00542.6107,E,2,8,1.06,223.0,M,48.5,M,0000,0000*5B

$GPGSA,A,3,09,02,05,07,13,30,06,28,,,,,1.37,1.06,0.88*04

$GPGSV,3,1,11,30,74,174,33,07,61,063,44,05,53,302,27,09,33,081,49*76

$GPGSV,3,2,11,02,30,241,16,13,22,271,19,40,19,121,39,06,15,203,30*73

$GPGSV,3,3,11,28,11,153,21,23,05,087,,16,02,022,*49

$GPRMC,093601.000,A,4511.7786,N,00542.6107,E,0.00,331.19,060219,,,D*6F

$GPGGA,093602.000,4511.7786,N,00542.6107,E,2,8,1.06,223.0,M,48.5,M,0000,0000*58

$GPGSA,A,3,09,02,05,07,13,30,06,28,,,,,1.37,1.06,0.88*04

$GPGSV,3,1,11,30,74,174,34,07,61,063,44,05,53,302,27,09,33,081,49*71

$GPGSV,3,2,11,02,30,241,19,13,22,271,21,40,19,121,39,06,15,203,29*7F

$GPGSV,3,3,11,28,11,153,21,23,05,087,,16,02,022,*49

$GPRMC,093602.000,A,4511.7786,N,00542.6107,E,0.00,331.19,060219,,,D*6C

$GPGGA,093603.000,4511.7786,N,00542.6107,E,2,8,1.06,223.0,M,48.5,M,0000,0000*59

$GPGSA,A,3,09,02,05,07,13,30,06,28,,,,,1.37,1.06,0.88*04

$GPGSV,3,1,11,30,74,174,34,07,61,063,44,05,53,302,27,09,33,081,49*71

$GPGSV,3,2,11,02,30,241,20,13,22,271,18,40,19,121,39,06,15,203,29*7F

$GPGSV,3,3,11,28,11,153,21,23,05,087,,16,02,022,*49

$GPRMC,093603.000,A,4511.7786,N,00542.6107,E,0.00,331.19,060219,,,D*6D

$GPGGA,093604.000,4511.7786,N,00542.6107,E,2,8,1.06,223.0,M,48.5,M,0000,0000*5E

$GPGSA,A,3,09,02,05,07,13,30,06,28,,,,,1.37,1.06,0.88*04

$GPGSV,3,1,11,30,74,174,34,07,61,063,44,05,53,302,27,09,33,081,49*71

$GPGSV,3,2,11,02,30,241,22,13,22,271,19,40,19,121,39,06,15,203,27*72

$GPGSV,3,3,11,28,11,153,21,23,05,087,,16,02,022,*49

$GPRMC,093604.000,A,4511.7786,N,00542.6107,E,0.00,331.19,060219,,,D*6A

$GPGGA,093605.000,4511.7786,N,00542.6107,E,2,8,1.06,223.0,M,48.5,M,0000,0000*5F

$GPGSA,A,3,09,02,05,07,13,30,06,28,,,,,1.37,1.06,0.88*04

$GPGSV,3,1,11,30,74,174,34,07,61,063,44,05,53,302,26,09,33,081,49*70

$GPGSV,3,2,11,02,30,241,23,13,22,271,19,40,19,121,39,06,15,203,23*77

$GPGSV,3,3,11,28,11,153,22,23,05,087,,16,02,022,*4A

$GPRMC,093605.000,A,4511.7786,N,00542.6107,E,0.00,331.19,060219,,,D*6B

$GPGGA,093606.000,4511.7786,N,00542.6107,E,2,8,1.06,223.0,M,48.5,M,0000,0000*5C

$GPGSA,A,3,09,02,05,07,13,30,06,28,,,,,1.37,1.06,0.88*04

$GPGSV,3,1,11,30,74,174,34,07,61,063,43,05,53,302,26,09,33,081,49*77

$GPGSV,3,2,11,02,30,241,23,13,22,271,17,40,19,121,39,06,15,203,22*78

$GPGSV,3,3,11,28,11,153,22,23,05,087,,16,02,022,*4A

$GPRMC,093606.000,A,4511.7786,N,00542.6107,E,0.00,331.19,060219,,,D*68

$GPGGA,093607.000,4511.7786,N,00542.6107,E,2,8,1.06,223.0,M,48.5,M,0000,0000*5D

$GPGSA,A,3,09,02,05,07,13,30,06,28,,,,,1.37,1.06,0.88*04

$GPGSV,3,1,11,30,74,174,34,07,61,063,43,05,53,302,26,09,33,081,49*77

$GPGSV,3,2,11,02,30,241,24,13,22,271,20,40,19,121,39,06,15,203,21*78

$GPGSV,3,3,11,28,11,153,24,23,05,087,,16,02,022,*4C

$GPRMC,093607.000,A,4511.7786,N,00542.6107,E,0.00,331.19,060219,,,D*69

$GPGGA,093608.000,4511.7786,N,00542.6107,E,2,8,1.06,223.0,M,48.5,M,0000,0000*52

$GPGSA,A,3,09,02,05,07,13,30,06,28,,,,,1.37,1.06,0.88*04

$GPGSV,3,1,11,30,74,174,34,07,61,063,43,05,53,302,25,09,33,081,49*74

$GPGSV,3,2,11,02,30,241,24,13,22,271,20,40,19,121,39,06,15,203,20*79

$GPGSV,3,3,11,28,11,153,24,23,05,087,,16,02,022,*4C

$GPRMC,093608.000,A,4511.7786,N,00542.6107,E,0.00,331.19,060219,,,D*66

$GPGGA,093609.000,4511.7786,N,00542.6107,E,2,7,1.16,223.0,M,48.5,M,0000,0000*5D

$GPGSA,A,3,09,02,07,13,30,06,28,,,,,,1.45,1.16,0.88*05

$GPGSV,3,1,11,30,74,174,34,07,61,063,43,05,53,302,,09,33,081,49*73

$GPGSV,3,2,11,02,30,241,25,13,22,271,19,40,19,121,39,06,15,203,20*72

$GPGSV,3,3,11,28,11,153,24,23,05,087,,16,02,022,*4C

$GPRMC,093609.000,A,4511.7786,N,00542.6107,E,0.00,331.19,060219,,,D*67

$GPGGA,093610.000,4511.7786,N,00542.6107,E,2,6,1.30,223.0,M,48.5,M,0000,0000*50

$GPGSA,A,3,09,02,07,13,30,28,,,,,,,1.57,1.30,0.88*04

$GPGSV,3,1,11,30,74,174,33,07,61,063,43,05,53,302,,09,33,081,49*74

$GPGSV,3,2,11,02,30,241,24,13,22,271,22,40,19,121,39,06,15,202,23*79

$GPGSV,3,3,11,28,11,153,24,23,05,087,,16,02,022,*4C

$GPRMC,093610.000,A,4511.7786,N,00542.6107,E,0.00,331.19,060219,,,D*6F

$GPGGA,093611.000,4511.7786,N,00542.6107,E,2,8,1.06,223.0,M,48.5,M,0000,0000*5A

$GPGSA,A,3,09,02,05,07,13,30,06,28,,,,,1.37,1.06,0.88*04

$GPGSV,3,1,11,30,74,174,33,07,61,063,42,05,53,302,31,09,33,081,49*77

$GPGSV,3,2,11,02,30,241,23,13,22,271,20,40,19,121,39,06,15,202,25*7A

$GPGSV,3,3,11,28,11,153,24,23,05,087,,16,02,022,*4C

$GPRMC,093611.000,A,4511.7786,N,00542.6107,E,0.00,331.19,060219,,,D*6E

$GPGGA,093612.000,4511.7786,N,00542.6107,E,2,8,1.06,223.0,M,48.5,M,0000,0000*59

$GPGSA,A,3,09,02,05,07,13,30,06,28,,,,,1.37,1.06,0.88*04

$GPGSV,3,1,11,30,74,174,32,07,61,063,41,05,53,302,30,09,33,081,49*74

$GPGSV,3,2,11,02,30,241,22,13,22,271,23,40,19,121,39,06,15,202,29*74

$GPGSV,3,3,11,28,11,153,24,23,05,087,,16,02,022,*4C

$GPRMC,093612.000,A,4511.7786,N,00542.6107,E,0.00,331.19,060219,,,D*6D

$GPGGA,093613.000,4511.7786,N,00542.6107,E,2,8,1.06,223.0,M,48.5,M,0000,0000*58

$GPGSA,A,3,09,02,05,07,13,30,06,28,,,,,1.37,1.06,0.88*04

$GPGSV,3,1,11,30,74,174,32,07,61,063,41,05,53,302,29,09,33,081,49*7C

$GPGSV,3,2,11,02,30,241,20,13,22,271,23,40,19,121,39,06,15,202,28*77

$GPGSV,3,3,11,28,11,153,25,23,05,087,,16,02,022,*4D

$GPRMC,093613.000,A,4511.7786,N,00542.6107,E,0.00,331.19,060219,,,D*6C

$GPGGA,093614.000,4511.7786,N,00542.6107,E,2,8,1.06,223.0,M,48.5,M,0000,0000*5F

$GPGSA,A,3,09,02,05,07,13,30,06,28,,,,,1.37,1.06,0.88*04

$GPGSV,3,1,11,30,74,174,31,07,61,063,41,05,53,302,26,09,33,081,49*70

$GPGSV,3,2,11,02,30,241,19,13,22,271,21,40,19,121,39,06,15,202,30*76

$GPGSV,3,3,11,28,11,153,24,23,05,087,,16,02,022,*4C

$GPRMC,093614.000,A,4511.7786,N,00542.6107,E,0.00,331.19,060219,,,D*6B

$GPGGA,093615.000,4511.7786,N,00542.6107,E,2,8,1.06,223.0,M,48.5,M,0000,0000*5E

$GPGSA,A,3,09,02,05,07,13,30,06,28,,,,,1.37,1.06,0.88*04

$GPGSV,3,1,11,30,74,174,30,07,61,063,41,05,53,302,26,09,33,081,49*71

$GPGSV,3,2,11,02,30,241,14,13,22,271,20,40,19,121,39,06,15,202,31*7B

$GPGSV,3,3,11,28,11,153,24,23,05,087,,16,02,022,*4C

$GPRMC,093615.000,A,4511.7786,N,00542.6107,E,0.00,331.19,060219,,,D*6A

$GPGGA,093616.000,4511.7786,N,00542.6107,E,2,8,1.06,223.0,M,48.5,M,0000,0000*5D

$GPGSA,A,3,09,02,05,07,13,30,06,28,,,,,1.37,1.06,0.88*04

$GPGSV,3,1,11,30,74,174,28,07,61,063,41,05,53,302,26,09,33,081,49*78

$GPGSV,3,2,11,02,30,241,18,13,22,271,17,40,19,121,39,06,15,202,32*70

$GPGSV,3,3,11,28,11,153,24,23,05,087,,16,02,022,*4C

$GPRMC,093616.000,A,4511.7786,N,00542.6107,E,0.00,331.19,060219,,,D*69

$GPGGA,093617.000,4511.7786,N,00542.6107,E,2,8,1.06,223.0,M,48.5,M,0000,0000*5C

$GPGSA,A,3,09,02,05,07,13,30,06,28,,,,,1.37,1.06,0.88*04

$GPGSV,3,1,11,30,74,174,27,07,61,063,40,05,53,302,26,09,33,081,49*76

$GPGSV,3,2,11,02,30,241,20,13,22,271,17,40,19,121,39,06,15,202,32*7B

$GPGSV,3,3,11,28,11,153,24,23,05,087,,16,02,022,*4C

$GPRMC,093617.000,A,4511.7786,N,00542.6107,E,0.00,331.19,060219,,,D*68

$GPGGA,093618.000,4511.7786,N,00542.6107,E,2,8,1.06,223.0,M,48.5,M,0000,0000*53

$GPGSA,A,3,09,02,05,07,13,30,06,28,,,,,1.37,1.06,0.88*04

$GPGSV,3,1,11,30,74,174,20,07,61,063,40,05,53,302,26,09,33,081,49*71

$GPGSV,3,2,11,02,30,241,19,13,22,271,15,40,19,121,39,06,15,202,31*70

$GPGSV,3,3,11,28,11,153,24,23,05,087,,16,02,022,*4C

$GPRMC,093618.000,A,4511.7786,N,00542.6107,E,0.00,331.19,060219,,,D*67

$GPGGA,093619.000,4511.7786,N,00542.6107,E,2,8,1.06,223.0,M,48.5,M,0000,0000*52

$GPGSA,A,3,09,02,05,07,13,30,06,28,,,,,1.37,1.06,0.88*04

$GPGSV,3,1,11,30,74,174,17,07,61,063,40,05,53,302,26,09,33,081,49*75

$GPGSV,3,2,11,02,30,241,17,13,22,271,15,40,19,121,39,06,15,202,31*7E

$GPGSV,3,3,11,28,11,153,23,23,05,087,,16,02,022,*4B

$GPRMC,093619.000,A,4511.7786,N,00542.6107,E,0.00,331.19,060219,,,D*66

$GPGGA,093620.000,4511.7786,N,00542.6107,E,2,8,1.24,223.0,M,48.5,M,0000,0000*58

$GPGSA,A,3,09,02,05,07,13,30,06,28,,,,,2.20,1.24,1.82*0A

$GPGSV,3,1,11,30,74,174,14,07,61,063,40,05,53,302,26,09,33,081,49*76

$GPGSV,3,2,11,02,30,241,16,13,22,271,18,40,19,121,39,06,15,202,31*72

$GPGSV,3,3,11,28,11,153,22,23,05,087,,16,02,022,*4A

$GPRMC,093620.000,A,4511.7786,N,00542.6107,E,0.00,331.19,060219,,,D*6C

$GPGGA,093621.000,4511.7786,N,00542.6107,E,2,8,1.06,223.0,M,48.5,M,0000,0000*59

$GPGSA,A,3,09,02,05,07,13,30,06,28,,,,,1.37,1.06,0.88*04

$GPGSV,3,1,11,30,74,174,13,07,61,063,40,05,53,302,26,09,33,081,49*71

$GPGSV,3,2,11,02,30,241,15,13,22,271,17,40,19,121,39,06,15,202,31*7E

$GPGSV,3,3,11,28,11,153,22,23,05,087,,16,02,022,*4A

$GPRMC,093621.000,A,4511.7786,N,00542.6107,E,0.00,331.19,060219,,,D*6D

$GPGGA,093622.000,4511.7786,N,00542.6107,E,2,8,1.24,223.0,M,48.5,M,0000,0000*5A

$GPGSA,A,3,09,02,05,07,13,30,06,28,,,,,2.20,1.24,1.82*0A

$GPGSV,3,1,11,30,74,174,17,07,61,063,40,05,53,302,27,09,33,081,49*74

$GPGSV,3,2,11,02,30,241,16,13,22,271,17,40,19,121,39,06,15,202,31*7D

$GPGSV,3,3,11,28,11,153,23,23,05,087,,16,02,022,*4B

$GPRMC,093622.000,A,4511.7786,N,00542.6107,E,0.00,331.19,060219,,,D*6E

$GPGGA,093623.000,4511.7786,N,00542.6107,E,2,8,1.06,223.0,M,48.5,M,0000,0000*5B

$GPGSA,A,3,09,02,05,07,13,30,06,28,,,,,1.37,1.06,0.88*04

$GPGSV,3,1,11,30,74,174,18,07,61,063,40,05,53,302,28,09,33,081,49*74

$GPGSV,3,2,11,02,30,241,15,13,22,271,17,40,19,121,39,06,15,202,31*7E

$GPGSV,3,3,11,28,11,153,22,23,05,087,,16,02,022,*4A

$GPRMC,093623.000,A,4511.7786,N,00542.6107,E,0.00,331.19,060219,,,D*6F

$GPGGA,093624.000,4511.7786,N,00542.6107,E,2,8,1.06,223.0,M,48.5,M,0000,0000*5C

$GPGSA,A,3,09,02,05,07,13,30,06,28,,,,,1.37,1.06,0.88*04

$GPGSV,3,1,11,30,74,174,23,07,61,063,39,05,53,302,28,09,33,081,49*72

$GPGSV,3,2,11,02,30,241,17,13,22,271,16,40,19,121,39,06,15,202,31*7D

$GPGSV,3,3,11,28,11,153,23,23,05,087,,16,02,022,*4B

$GPRMC,093624.000,A,4511.7786,N,00542.6107,E,0.00,331.19,060219,,,D*68

$GPGGA,093625.000,4511.7786,N,00542.6107,E,2,8,1.06,223.0,M,48.5,M,0000,0000*5D

$GPGSA,A,3,09,02,05,07,13,30,06,28,,,,,1.37,1.06,0.88*04

$GPGSV,3,1,11,30,74,174,27,07,61,063,39,05,53,302,28,09,33,081,49*76

$GPGSV,3,2,11,02,30,241,17,13,22,271,15,40,19,121,39,06,15,202,30*7F

$GPGSV,3,3,11,28,11,153,23,23,05,087,,16,02,022,*4B

$GPRMC,093625.000,A,4511.7786,N,00542.6107,E,0.00,331.19,060219,,,D*69

$GPGGA,093626.000,4511.7786,N,00542.6107,E,2,8,1.24,223.0,M,48.5,M,0000,0000*5E

$GPGSA,A,3,09,02,05,07,13,30,06,28,,,,,2.20,1.24,1.82*0A

$GPGSV,3,1,11,30,74,174,28,07,61,063,39,05,53,302,28,09,33,081,49*79

$GPGSV,3,2,11,02,30,241,18,13,22,271,12,40,19,121,39,06,15,202,29*7F

$GPGSV,3,3,11,28,11,153,23,23,05,087,,16,02,022,*4B

$GPRMC,093626.000,A,4511.7786,N,00542.6107,E,0.00,331.19,060219,,,D*6A

$GPGGA,093627.000,4511.7786,N,00542.6107,E,2,8,1.24,223.0,M,48.5,M,0000,0000*5F

$GPGSA,A,3,09,02,05,07,13,30,06,28,,,,,2.20,1.24,1.82*0A

$GPGSV,3,1,11,30,74,174,29,07,61,063,40,05,53,302,29,09,33,081,49*77

$GPGSV,3,2,11,02,30,241,19,13,22,271,12,40,19,121,39,06,15,202,28*7F

$GPGSV,3,3,11,28,11,153,24,23,05,087,,16,02,022,*4C

$GPRMC,093627.000,A,4511.7786,N,00542.6107,E,0.00,331.19,060219,,,D*6B

$GPGGA,093628.000,4511.7786,N,00542.6107,E,2,8,1.24,223.0,M,48.5,M,0000,0000*50

$GPGSA,A,3,09,02,05,07,13,30,06,28,,,,,2.20,1.24,1.82*0A

$GPGSV,3,1,11,30,74,174,30,07,61,063,40,05,53,302,30,09,33,081,49*77

$GPGSV,3,2,11,02,30,241,21,13,22,271,12,40,19,121,39,06,15,202,26*7A

$GPGSV,3,3,11,28,11,153,24,23,05,087,,16,02,022,*4C

$GPRMC,093628.000,A,4511.7786,N,00542.6107,E,0.00,331.19,060219,,,D*64

$GPGGA,093629.000,4511.7786,N,00542.6107,E,2,8,1.24,223.0,M,48.5,M,0000,0000*51

$GPGSA,A,3,09,02,05,07,13,30,06,28,,,,,2.20,1.24,1.82*0A

$GPGSV,3,1,11,30,74,174,31,07,61,063,40,05,53,302,31,09,33,081,49*77

$GPGSV,3,2,11,02,30,241,23,13,22,271,17,40,19,121,39,06,15,202,18*70

$GPGSV,3,3,11,28,11,153,24,23,05,087,,16,02,022,*4C

$GPRMC,093629.000,A,4511.7786,N,00542.6107,E,0.00,331.19,060219,,,D*65

$GPGGA,093630.000,4511.7786,N,00542.6107,E,2,8,1.24,223.0,M,48.5,M,0000,0000*59

$GPGSA,A,3,09,02,05,07,13,30,06,28,,,,,2.20,1.24,1.82*0A

$GPGSV,3,1,11,30,74,174,32,07,61,063,40,05,53,302,32,09,33,081,48*76

$GPGSV,3,2,11,02,30,241,24,13,22,271,19,40,19,121,39,06,15,202,18*79

$GPGSV,3,3,11,28,11,153,25,23,05,087,,16,02,022,*4D

$GPRMC,093630.000,A,4511.7786,N,00542.6107,E,0.00,331.19,060219,,,D*6D

$GPGGA,093631.000,4511.7786,N,00542.6107,E,2,8,1.24,223.0,M,48.5,M,0000,0000*58

$GPGSA,A,3,09,02,05,07,13,30,06,28,,,,,2.20,1.24,1.82*0A

$GPGSV,3,1,11,30,74,174,32,07,61,063,40,05,53,302,32,09,33,081,48*76

$GPGSV,3,2,11,02,30,241,24,13,22,271,22,40,19,121,39,06,15,202,18*71

$GPGSV,3,3,11,28,11,153,25,23,05,087,,16,02,022,*4D

$GPRMC,093631.000,A,4511.7786,N,00542.6107,E,0.00,331.19,060219,,,D*6C

$GPGGA,093632.000,4511.7786,N,00542.6107,E,2,8,1.24,223.0,M,48.5,M,0000,0000*5B

$GPGSA,A,3,09,02,05,07,13,30,06,28,,,,,2.20,1.24,1.82*0A

$GPGSV,3,1,11,30,74,174,32,07,61,063,40,05,53,302,30,09,33,081,48*74

$GPGSV,3,2,11,02,30,241,24,13,22,271,24,40,19,121,39,06,15,202,18*77

$GPGSV,3,3,11,28,12,153,26,23,05,087,,16,02,022,*4D

$GPRMC,093632.000,A,4511.7786,N,00542.6107,E,0.00,331.19,060219,,,D*6F

$GPGGA,093633.000,4511.7786,N,00542.6107,E,2,7,1.19,223.0,M,48.5,M,0000,0000*5B

$GPGSA,A,3,09,02,05,07,13,30,28,,,,,,1.48,1.19,0.88*04

$GPGSV,3,1,11,30,74,174,32,07,61,063,40,05,53,302,28,09,33,081,48*7D

$GPGSV,3,2,11,02,30,241,25,13,22,271,24,40,19,121,39,06,15,202,18*76

$GPGSV,3,3,11,28,12,153,27,23,05,087,,16,02,022,*4C

$GPRMC,093633.000,A,4511.7786,N,00542.6107,E,0.00,331.19,060219,,,D*6E

$GPGGA,093634.000,4511.7786,N,00542.6107,E,2,7,1.19,223.0,M,48.5,M,0000,0000*5C

$GPGSA,A,3,09,02,05,07,13,30,28,,,,,,1.48,1.19,0.88*04

$GPGSV,3,1,11,30,74,174,32,07,61,063,40,05,53,302,20,09,33,081,48*75

$GPGSV,3,2,11,02,30,241,24,13,22,271,24,40,19,121,39,06,15,202,18*77

$GPGSV,3,3,11,28,12,153,27,23,05,087,,16,02,022,*4C

$GPRMC,093634.000,A,4511.7786,N,00542.6107,E,0.00,331.19,060219,,,D*69

$GPGGA,093635.000,4511.7786,N,00542.6107,E,2,8,1.06,223.0,M,48.5,M,0000,0000*5C

$GPGSA,A,3,09,02,05,07,13,30,06,28,,,,,1.37,1.06,0.88*04

$GPGSV,3,1,11,30,74,174,32,07,61,063,40,05,53,302,16,09,33,081,48*70

$GPGSV,3,2,11,02,30,241,24,13,22,271,24,40,19,121,39,06,15,202,20*7C

$GPGSV,3,3,11,28,12,153,27,23,05,087,,16,02,022,*4C

$GPRMC,093635.000,A,4511.7786,N,00542.6107,E,0.00,331.19,060219,,,D*68

$GPGGA,093636.000,4511.7786,N,00542.6107,E,2,8,1.06,223.0,M,48.5,M,0000,0000*5F

$GPGSA,A,3,09,02,05,07,13,30,06,28,,,,,1.37,1.06,0.88*04

$GPGSV,3,1,11,30,74,174,32,07,61,063,40,05,53,302,14,09,33,081,48*72

$GPGSV,3,2,11,02,30,241,24,13,22,271,24,40,19,121,39,06,15,202,22*7E

$GPGSV,3,3,11,28,12,153,27,23,05,087,,16,02,022,*4C

$GPRMC,093636.000,A,4511.7786,N,00542.6107,E,0.00,331.19,060219,,,D*6B

$GPGGA,093637.000,4511.7786,N,00542.6107,E,2,8,1.06,223.0,M,48.5,M,0000,0000*5E

$GPGSA,A,3,09,02,05,07,13,30,06,28,,,,,1.37,1.06,0.88*04

$GPGSV,3,1,11,30,74,174,32,07,61,063,40,05,53,302,15,09,33,081,48*73

$GPGSV,3,2,11,02,30,241,24,13,22,271,24,40,19,121,39,06,15,202,22*7E

$GPGSV,3,3,11,28,12,153,28,23,05,087,,16,02,022,*43

$GPRMC,093637.000,A,4511.7786,N,00542.6107,E,0.00,331.19,060219,,,D*6A

$GPGGA,093638.000,4511.7786,N,00542.6107,E,2,8,1.06,223.0,M,48.5,M,0000,0000*51

$GPGSA,A,3,09,02,05,07,13,30,06,28,,,,,1.37,1.06,0.88*04

$GPGSV,3,1,11,30,74,174,33,07,61,063,40,05,53,302,14,09,33,081,48*73

$GPGSV,3,2,11,02,30,241,25,13,22,271,24,40,19,121,39,06,15,202,24*79

$GPGSV,3,3,11,28,12,153,28,23,05,087,,16,02,022,*43

$GPRMC,093638.000,A,4511.7786,N,00542.6107,E,0.00,331.19,060219,,,D*65

$GPGGA,093639.000,4511.7786,N,00542.6107,E,2,8,1.06,223.0,M,48.5,M,0000,0000*50

$GPGSA,A,3,09,02,05,07,13,30,06,28,,,,,1.37,1.06,0.88*04

$GPGSV,3,1,11,30,74,174,33,07,61,063,40,05,53,302,19,09,33,081,48*7E

$GPGSV,3,2,11,02,30,241,25,13,22,271,24,40,19,121,39,06,15,202,24*79

$GPGSV,3,3,11,28,12,153,28,23,05,087,,16,02,022,*43

$GPRMC,093639.000,A,4511.7786,N,00542.6107,E,0.00,331.19,060219,,,D*64

$GPGGA,093640.000,4511.7786,N,00542.6107,E,2,8,1.06,223.0,M,48.5,M,0000,0000*5E

$GPGSA,A,3,09,02,05,07,13,30,06,28,,,,,1.37,1.06,0.88*04

$GPGSV,3,1,11,30,74,174,32,07,61,063,40,05,53,302,26,09,33,081,48*73

$GPGSV,3,2,11,02,30,241,24,13,22,271,24,40,19,121,39,06,15,202,24*78

$GPGSV,3,3,11,28,12,153,28,23,05,087,,16,02,022,*43

$GPRMC,093640.000,A,4511.7786,N,00542.6107,E,0.00,331.19,060219,,,D*6A

$GPGGA,093641.000,4511.7786,N,00542.6107,E,2,8,1.06,223.0,M,48.5,M,0000,0000*5F

$GPGSA,A,3,09,02,05,07,13,30,06,28,,,,,1.37,1.06,0.88*04

$GPGSV,3,1,11,30,74,174,31,07,61,063,40,05,53,302,29,09,33,081,48*7F

$GPGSV,3,2,11,02,30,241,25,13,22,271,22,40,19,121,39,06,15,202,26*7D

$GPGSV,3,3,11,28,12,153,28,23,05,087,,16,02,022,*43

$GPRMC,093641.000,A,4511.7786,N,00542.6107,E,0.00,331.19,060219,,,D*6B

$GPGGA,093642.000,4511.7786,N,00542.6107,E,2,8,1.06,223.0,M,48.5,M,0000,0000*5C

$GPGSA,A,3,09,02,05,07,13,30,06,28,,,,,1.37,1.06,0.88*04

$GPGSV,3,1,11,30,74,174,29,07,61,063,40,05,53,302,30,09,33,081,48*7E

$GPGSV,3,2,11,02,30,241,24,13,22,271,24,40,19,121,39,06,15,202,25*79

$GPGSV,3,3,11,28,12,153,28,23,05,087,,16,02,022,*43

$GPRMC,093642.000,A,4511.7786,N,00542.6107,E,0.00,331.19,060219,,,D*68

$GPGGA,093643.000,4511.7786,N,00542.6107,E,2,8,1.24,223.0,M,48.5,M,0000,0000*5D

$GPGSA,A,3,09,02,05,07,13,30,06,28,,,,,2.21,1.24,1.82*0B

$GPGSV,3,1,11,30,74,174,28,07,61,063,40,05,53,302,29,09,33,081,48*77

$GPGSV,3,2,11,02,30,241,24,13,22,271,27,40,19,121,39,06,15,202,26*79

$GPGSV,3,3,11,28,12,153,28,23,05,087,,16,02,022,*43

$GPRMC,093643.000,A,4511.7786,N,00542.6107,E,0.00,331.19,060219,,,D*69

$GPGGA,093644.000,4511.7786,N,00542.6107,E,2,8,1.06,223.0,M,48.5,M,0000,0000*5A

$GPGSA,A,3,09,02,05,07,13,30,06,28,,,,,1.37,1.06,0.88*04

$GPGSV,3,1,11,30,74,174,21,07,61,063,40,05,53,302,28,09,33,081,49*7E

$GPGSV,3,2,11,02,30,241,24,13,22,271,27,40,19,121,39,06,15,202,23*7C

$GPGSV,3,3,11,28,12,153,27,23,05,087,,16,02,022,*4C

$GPRMC,093644.000,A,4511.7786,N,00542.6107,E,0.00,331.19,060219,,,D*6E

$GPGGA,093645.000,4511.7786,N,00542.6107,E,2,8,1.24,223.0,M,48.5,M,0000,0000*5B

$GPGSA,A,3,09,02,05,07,13,30,06,28,,,,,2.21,1.24,1.82*0B

$GPGSV,3,1,11,30,74,174,17,07,61,063,40,05,53,302,25,09,33,081,49*76

$GPGSV,3,2,11,02,30,241,20,13,22,271,27,40,19,121,39,06,15,202,26*7D

$GPGSV,3,3,11,28,12,153,27,23,05,087,,16,02,022,*4C

$GPRMC,093645.000,A,4511.7786,N,00542.6107,E,0.00,331.19,060219,,,D*6F

$GPGGA,093646.000,4511.7786,N,00542.6107,E,2,8,1.24,223.0,M,48.5,M,0000,0000*58

$GPGSA,A,3,09,02,05,07,13,30,06,28,,,,,2.21,1.24,1.82*0B

$GPGSV,3,1,11,30,74,174,18,07,61,063,40,05,53,302,24,09,33,081,49*78

$GPGSV,3,2,11,02,30,241,19,13,22,271,29,40,19,121,39,06,15,202,24*7B

$GPGSV,3,3,11,28,12,153,27,23,05,087,,16,02,022,*4C

$GPRMC,093646.000,A,4511.7786,N,00542.6107,E,0.00,331.19,060219,,,D*6C

$GPGGA,093647.000,4511.7786,N,00542.6107,E,2,8,1.06,223.0,M,48.5,M,0000,0000*59

$GPGSA,A,3,09,02,05,07,13,30,06,28,,,,,1.37,1.06,0.88*04

$GPGSV,3,1,11,30,74,174,18,07,61,063,40,05,53,302,22,09,33,081,49*7E

$GPGSV,3,2,11,02,30,241,17,13,22,271,27,40,19,121,39,06,15,202,27*78

$GPGSV,3,3,11,28,12,153,27,23,05,087,,16,02,022,*4C

$GPRMC,093647.000,A,4511.7786,N,00542.6107,E,0.00,331.19,060219,,,D*6D

$GPGGA,093648.000,4511.7786,N,00542.6107,E,2,8,1.06,223.0,M,48.5,M,0000,0000*56

$GPGSA,A,3,09,02,05,07,13,30,06,28,,,,,1.37,1.06,0.88*04

$GPGSV,3,1,11,30,74,174,17,07,61,063,40,05,53,302,23,09,33,081,49*70

$GPGSV,3,2,11,02,30,241,17,13,22,271,25,40,19,121,39,06,15,202,27*7A

$GPGSV,3,3,11,28,12,153,27,23,05,087,,16,02,022,*4C

$GPRMC,093648.000,A,4511.7786,N,00542.6107,E,0.00,331.19,060219,,,D*62

$GPGGA,093649.000,4511.7786,N,00542.6107,E,2,8,1.06,223.0,M,48.5,M,0000,0000*57

$GPGSA,A,3,09,02,05,07,13,30,06,28,,,,,1.37,1.06,0.88*04

$GPGSV,3,1,11,30,74,174,20,07,61,063,40,05,53,302,24,09,33,081,49*73

$GPGSV,3,2,11,02,30,241,17,13,22,271,26,40,19,121,39,06,15,202,26*78

$GPGSV,3,3,11,28,12,153,27,23,05,087,,16,02,022,*4C

$GPRMC,093649.000,A,4511.7786,N,00542.6107,E,0.00,331.19,060219,,,D*63

$GPGGA,093650.000,4511.7786,N,00542.6107,E,2,8,1.24,223.0,M,48.5,M,0000,0000*5F

$GPGSA,A,3,09,02,05,07,13,30,06,28,,,,,2.21,1.24,1.82*0B

$GPGSV,3,1,11,30,74,174,19,07,61,063,40,05,53,302,24,09,33,081,49*79

$GPGSV,3,2,11,02,30,241,16,13,22,271,27,40,19,121,39,06,15,202,27*79

$GPGSV,3,3,11,28,12,153,26,23,05,087,,16,02,022,*4D

$GPRMC,093650.000,A,4511.7786,N,00542.6107,E,0.00,331.19,060219,,,D*6B

$GPGGA,093651.000,4511.7776,N,00542.6161,E,2,8,1.06,226.6,M,48.5,M,0000,0000*52

$GPGSA,A,3,09,02,05,07,13,30,06,28,,,,,1.37,1.06,0.88*04

$GPGSV,3,1,11,30,74,174,17,07,61,063,40,05,53,302,23,09,33,081,49*70

$GPGSV,3,2,11,02,30,241,17,13,22,271,26,40,19,121,39,06,15,202,27*79

$GPGSV,3,3,11,28,12,153,26,23,05,087,,16,02,022,*4D

$GPRMC,093651.000,A,4511.7776,N,00542.6161,E,1.30,48.20,060219,,,D*50

$GPGGA,093652.000,4511.7774,N,00542.6161,E,2,8,1.06,226.8,M,48.5,M,0000,0000*5D

$GPGSA,A,3,09,02,05,07,13,30,06,28,,,,,1.37,1.06,0.88*04

$GPGSV,3,1,11,30,74,174,21,07,61,063,40,05,53,302,22,09,33,081,49*74

$GPGSV,3,2,11,02,30,241,18,13,23,271,25,40,19,121,39,06,15,202,27*74

$GPGSV,3,3,11,28,12,153,26,23,05,087,,16,02,022,*4D

$GPRMC,093652.000,A,4511.7774,N,00542.6161,E,1.10,47.56,060219,,,D*5D

$GPGGA,093653.000,4511.7770,N,00542.6160,E,2,8,1.06,226.9,M,48.5,M,0000,0000*58

$GPGSA,A,3,09,02,05,07,13,30,06,28,,,,,1.37,1.06,0.88*04

$GPGSV,3,1,11,30,74,174,20,07,61,063,40,05,53,302,23,09,33,081,49*74

$GPGSV,3,2,11,02,30,241,20,13,23,271,25,40,19,121,39,06,15,202,27*7F

$GPGSV,3,3,11,28,12,153,26,23,05,087,,16,02,022,*4D

$GPRMC,093653.000,A,4511.7770,N,00542.6160,E,0.00,43.72,060219,,,D*5B

$GPGGA,093654.000,4511.7764,N,00542.6161,E,2,8,1.06,226.9,M,48.5,M,0000,0000*5B

$GPGSA,A,3,09,02,05,07,13,30,06,28,,,,,1.37,1.06,0.88*04

$GPGSV,3,1,11,30,74,174,23,07,61,063,40,05,53,302,22,09,33,081,49*76

$GPGSV,3,2,11,02,30,241,20,13,23,271,25,40,19,121,39,06,15,202,26*7E

$GPGSV,3,3,11,28,12,153,26,23,05,087,,16,02,022,*4D

$GPRMC,093654.000,A,4511.7764,N,00542.6161,E,0.00,287.55,060219,,,D*67

$GPGGA,093655.000,4511.7755,N,00542.6160,E,2,8,1.06,227.0,M,48.5,M,0000,0000*51

$GPGSA,A,3,09,02,05,07,13,30,06,28,,,,,1.37,1.06,0.88*04

$GPGSV,3,1,11,30,74,174,28,07,61,063,40,05,53,302,21,09,33,081,49*7E

$GPGSV,3,2,11,02,30,241,24,13,23,271,26,40,19,121,39,06,15,202,26*79

$GPGSV,3,3,11,28,12,153,27,23,05,087,,16,02,022,*4C

$GPRMC,093655.000,A,4511.7755,N,00542.6160,E,0.00,234.28,060219,,,D*67

$GPGGA,093656.000,4511.7755,N,00542.6160,E,2,8,1.06,227.0,M,48.5,M,0000,0000*52

$GPGSA,A,3,09,02,05,07,13,30,06,28,,,,,1.37,1.06,0.88*04

$GPGSV,3,1,11,30,74,174,26,07,61,063,40,05,53,302,22,09,33,081,49*73

$GPGSV,3,2,11,02,30,241,22,13,23,271,27,40,19,121,39,06,15,202,26*7E

$GPGSV,3,3,11,28,12,153,27,23,05,087,,16,02,022,*4C

$GPRMC,093656.000,A,4511.7755,N,00542.6160,E,0.00,234.28,060219,,,D*64

$GPGGA,093657.000,4511.7755,N,00542.6160,E,2,8,1.06,227.0,M,48.5,M,0000,0000*53

$GPGSA,A,3,09,02,05,07,13,30,06,28,,,,,1.37,1.06,0.88*04

$GPGSV,3,1,11,30,74,174,27,07,61,063,41,05,53,302,20,09,33,081,49*71

$GPGSV,3,2,11,02,30,241,28,13,23,271,28,40,19,121,39,06,15,202,25*78

$GPGSV,3,3,11,28,12,153,27,23,05,087,,16,02,022,*4C

$GPRMC,093657.000,A,4511.7755,N,00542.6160,E,0.00,234.28,060219,,,D*65

$GPGGA,093658.000,4511.7755,N,00542.6160,E,2,8,1.06,227.0,M,48.5,M,0000,0000*5C

$GPGSA,A,3,09,02,05,07,13,30,06,28,,,,,1.37,1.06,0.88*04

$GPGSV,3,1,11,30,74,174,27,07,61,063,41,05,53,302,17,09,33,081,49*75

$GPGSV,3,2,11,02,30,241,27,13,23,271,28,40,19,121,39,06,15,202,24*76

$GPGSV,3,3,11,28,12,153,26,23,05,087,,16,02,022,*4D

$GPRMC,093658.000,A,4511.7755,N,00542.6160,E,0.00,234.28,060219,,,D*6A

$GPGGA,093659.000,4511.7755,N,00542.6160,E,2,7,1.19,227.0,M,48.5,M,0000,0000*5C

$GPGSA,A,3,09,02,05,07,13,30,28,,,,,,1.48,1.19,0.88*04

$GPGSV,3,1,11,30,74,174,23,07,61,063,41,05,53,302,17,09,33,081,49*71

$GPGSV,3,2,11,02,30,241,26,13,23,271,25,40,19,121,39,06,15,202,17*7A

$GPGSV,3,3,11,28,12,153,26,23,05,087,,16,02,022,*4D

$GPRMC,093659.000,A,4511.7755,N,00542.6160,E,0.00,234.28,060219,,,D*6B

$GPGGA,093700.000,4511.7755,N,00542.6160,E,2,7,1.19,227.0,M,48.5,M,0000,0000*51

$GPGSA,A,3,09,02,05,07,13,30,28,,,,,,1.48,1.19,0.88*04

$GPGSV,3,1,11,30,74,174,22,07,61,063,41,05,53,302,19,09,33,081,49*7E

$GPGSV,3,2,11,02,30,241,26,13,23,271,24,40,19,121,39,06,15,202,17*7B

$GPGSV,3,3,11,28,12,153,26,23,05,087,,16,02,022,*4D

$GPRMC,093700.000,A,4511.7755,N,00542.6160,E,0.00,234.28,060219,,,D*66

$GPGGA,093701.000,4511.7755,N,00542.6160,E,2,7,1.19,227.0,M,48.5,M,0000,0000*50

$GPGSA,A,3,09,02,05,07,13,30,28,,,,,,1.48,1.19,0.88*04

$GPGSV,3,1,11,30,74,174,18,07,61,063,42,05,53,302,19,09,33,081,50*7C

$GPGSV,3,2,11,02,30,241,24,13,23,271,24,40,19,121,39,06,15,202,17*79

$GPGSV,3,3,11,28,12,153,26,23,05,087,,16,02,022,*4D

$GPRMC,093701.000,A,4511.7755,N,00542.6160,E,0.00,234.28,060219,,,D*67

$GPGGA,093702.000,4511.7755,N,00542.6160,E,2,8,1.06,227.0,M,48.5,M,0000,0000*52

$GPGSA,A,3,09,02,05,07,13,30,06,28,,,,,1.37,1.06,0.88*04

$GPGSV,3,1,11,30,74,174,16,07,61,063,42,05,53,302,17,09,33,081,50*7C

$GPGSV,3,2,11,02,30,241,22,13,23,271,25,40,19,121,39,06,15,202,18*71

$GPGSV,3,3,11,28,12,153,26,23,04,088,,16,02,022,*43

$GPRMC,093702.000,A,4511.7755,N,00542.6160,E,0.00,234.28,060219,,,D*64

$GPGGA,093703.000,4511.7755,N,00542.6160,E,2,8,1.06,227.0,M,48.5,M,0000,0000*53

$GPGSA,A,3,09,02,05,07,13,30,06,28,,,,,1.37,1.06,0.88*04

$GPGSV,3,1,11,30,74,174,16,07,61,063,42,05,53,302,18,09,33,081,50*73

$GPGSV,3,2,11,02,30,241,19,13,23,271,22,40,19,121,39,06,15,202,19*7F

$GPGSV,3,3,11,28,12,153,25,23,04,088,,16,02,022,*40

$GPRMC,093703.000,A,4511.7755,N,00542.6160,E,0.00,234.28,060219,,,D*65

$GPGGA,093704.000,4511.7755,N,00542.6160,E,2,8,1.06,227.0,M,48.5,M,0000,0000*54

$GPGSA,A,3,09,02,05,07,13,30,06,28,,,,,1.37,1.06,0.88*04

$GPGSV,3,1,11,30,74,174,22,07,61,063,42,05,53,302,15,09,33,081,50*79

$GPGSV,3,2,11,02,30,241,18,13,23,271,21,40,19,121,39,06,15,202,20*77

$GPGSV,3,3,11,28,12,153,25,23,04,088,,16,02,022,*40

$GPRMC,093704.000,A,4511.7755,N,00542.6160,E,0.00,234.28,060219,,,D*62

$GPGGA,093705.000,4511.7755,N,00542.6160,E,2,8,1.06,227.0,M,48.5,M,0000,0000*55

$GPGSA,A,3,09,02,05,07,13,30,06,28,,,,,1.37,1.06,0.88*04

$GPGSV,3,1,11,30,74,174,28,07,61,063,42,05,53,302,12,09,33,081,50*74

$GPGSV,3,2,11,02,30,241,20,13,23,271,23,40,19,121,39,06,15,202,21*7F

$GPGSV,3,3,11,28,12,153,25,23,04,088,,16,02,022,*40

$GPRMC,093705.000,A,4511.7755,N,00542.6160,E,0.00,234.28,060219,,,D*63

$GPGGA,093706.000,4511.7755,N,00542.6160,E,2,8,1.06,227.0,M,48.5,M,0000,0000*56

$GPGSA,A,3,09,02,05,07,13,30,06,28,,,,,1.37,1.06,0.88*04

$GPGSV,3,1,11,30,74,174,29,07,61,063,42,05,53,302,15,09,33,081,50*72

$GPGSV,3,2,11,02,30,241,19,13,23,271,21,40,19,121,39,06,15,202,21*77

$GPGSV,3,3,11,28,12,153,23,23,04,088,,16,02,022,*46

$GPRMC,093706.000,A,4511.7755,N,00542.6160,E,0.00,234.28,060219,,,D*60

$GPGGA,093707.000,4511.7755,N,00542.6160,E,2,8,1.06,227.0,M,48.5,M,0000,0000*57

$GPGSA,A,3,09,02,05,07,13,30,06,28,,,,,1.37,1.06,0.88*04

$GPGSV,3,1,11,30,74,174,30,07,61,063,42,05,53,302,14,09,33,081,50*7B

$GPGSV,3,2,11,02,30,241,21,13,23,271,20,40,19,121,39,06,15,202,22*7E

$GPGSV,3,3,11,28,12,153,22,23,04,088,,16,02,022,*47

$GPRMC,093707.000,A,4511.7755,N,00542.6160,E,0.00,234.28,060219,,,D*61

$GPGGA,093708.000,4511.7755,N,00542.6160,E,2,8,1.06,227.0,M,48.5,M,0000,0000*58

$GPGSA,A,3,09,02,05,07,13,30,06,28,,,,,1.37,1.06,0.88*04

$GPGSV,3,1,11,30,74,174,31,07,61,063,42,05,53,302,13,09,33,081,50*7D

$GPGSV,3,2,11,02,30,241,22,13,23,271,19,40,19,121,39,06,15,202,22*77

$GPGSV,3,3,11,28,12,153,22,23,04,088,,16,02,022,*47

$GPRMC,093708.000,A,4511.7755,N,00542.6160,E,0.00,234.28,060219,,,D*6E

$GPGGA,093709.000,4511.7755,N,00542.6160,E,2,8,1.06,227.0,M,48.5,M,0000,0000*59

$GPGSA,A,3,09,02,05,07,13,30,06,28,,,,,1.37,1.06,0.88*04

$GPGSV,3,1,11,30,74,173,29,07,61,063,42,05,53,302,13,09,33,081,50*73

$GPGSV,3,2,11,02,30,241,23,13,23,271,17,40,19,121,39,06,15,202,22*78

$GPGSV,3,3,11,28,12,153,22,23,04,088,,16,02,022,*47

$GPRMC,093709.000,A,4511.7755,N,00542.6160,E,0.00,234.28,060219,,,D*6F

$GPGGA,093710.000,4511.7743,N,00542.6143,E,2,7,1.17,227.3,M,48.5,M,0000,0000*5B

$GPGSA,A,3,09,02,05,07,30,06,28,,,,,,1.49,1.17,0.91*07

$GPGSV,3,1,11,30,74,173,29,07,61,063,42,05,53,302,16,09,33,081,50*76

$GPGSV,3,2,11,02,30,241,25,13,23,271,,40,19,121,39,06,15,202,22*78

$GPGSV,3,3,11,28,12,153,21,23,04,088,,16,02,022,*44

$GPRMC,093710.000,A,4511.7743,N,00542.6143,E,1.36,39.61,060219,,,D*57

$GPGGA,093711.000,4511.7749,N,00542.6145,E,2,8,1.06,227.1,M,48.5,M,0000,0000*5B

$GPGSA,A,3,09,02,05,07,13,30,06,28,,,,,1.37,1.06,0.88*04

$GPGSV,3,1,11,30,74,173,29,07,61,063,42,05,53,302,20,09,33,081,50*73

$GPGSV,3,2,11,02,30,241,24,13,23,271,17,40,19,121,39,06,15,202,24*79

$GPGSV,3,3,11,28,12,153,20,23,04,088,,16,02,022,*45

$GPRMC,093711.000,A,4511.7749,N,00542.6145,E,1.15,27.26,060219,,,D*57

$GPGGA,093712.000,4511.7753,N,00542.6146,E,2,8,1.06,226.9,M,48.5,M,0000,0000*59

$GPGSA,A,3,09,02,05,07,13,30,06,28,,,,,1.37,1.06,0.88*04

$GPGSV,3,1,11,30,74,173,29,07,61,063,42,05,53,302,26,09,33,081,50*75

$GPGSV,3,2,11,02,30,241,25,13,23,271,17,40,19,121,39,06,15,202,24*78

$GPGSV,3,3,11,28,12,153,21,23,04,088,,16,02,022,*44

$GPRMC,093712.000,A,4511.7753,N,00542.6146,E,0.90,6.15,060219,,,D*63

$GPGGA,093713.000,4511.7758,N,00542.6147,E,2,8,1.24,226.8,M,48.5,M,0000,0000*53

$GPGSA,A,3,09,02,05,07,13,30,06,28,,,,,2.21,1.24,1.83*0A

$GPGSV,3,1,11,30,74,173,28,07,61,063,42,05,53,302,27,09,33,081,50*75

$GPGSV,3,2,11,02,30,241,23,13,23,271,18,40,19,121,39,06,15,202,26*73

$GPGSV,3,3,11,28,12,153,20,23,04,088,,16,02,022,*45

$GPRMC,093713.000,A,4511.7758,N,00542.6147,E,1.14,18.88,060219,,,D*5E

$GPGGA,093714.000,4511.7762,N,00542.6149,E,2,8,1.06,226.7,M,48.5,M,0000,0000*5C

$GPGSA,A,3,09,02,05,07,13,30,06,28,,,,,1.37,1.06,0.88*04

$GPGSV,3,1,11,30,74,173,28,07,61,063,42,05,53,302,27,09,33,081,50*75

$GPGSV,3,2,11,02,30,241,23,13,23,271,18,40,19,121,39,06,15,202,28*7D

$GPGSV,3,3,11,28,12,153,19,23,04,088,,16,02,022,*4F

$GPRMC,093714.000,A,4511.7762,N,00542.6149,E,0.94,358.26,060219,,,D*64

$GPGGA,093715.000,4511.7769,N,00542.6153,E,2,8,1.24,226.7,M,48.5,M,0000,0000*5D

$GPGSA,A,3,09,02,05,07,13,30,06,28,,,,,2.21,1.24,1.83*0A

$GPGSV,3,1,11,30,74,173,27,07,61,063,42,05,53,302,27,09,33,081,50*7A

$GPGSV,3,2,11,02,30,241,21,13,23,271,20,40,19,121,39,06,15,202,27*7B

$GPGSV,3,3,11,28,12,153,18,23,04,088,,16,02,022,*4E

$GPRMC,093715.000,A,4511.7769,N,00542.6153,E,1.24,21.97,060219,,,D*58

